stop_id,hour,is_weekday,trips_per_hour,peak_hour,stop_name,stop_lat,stop_lon,rain_mm,is_rain,heavy_rain,temperature,avg_travel_time,median_travel_time,p90_travel_time,high_congestion,delay_overcrowding
0001RLW,6,True,11,1,Railways,-1.290884,36.828242,0.0857142857142857,0.6428571428571429,0.0,18.90714285714285,4279.27,4217.5,6212.200000000001,0.0,1
0001RLW,7,True,3,1,Railways,-1.290884,36.828242,0.0571428571428571,0.5,0.0,20.92142857142857,3847.35,3883.0,5704.700000000003,0.0,1
0100..M,6,True,1,1,K.M.,-1.167726517,36.91900849,0.0857142857142857,0.6428571428571429,0.0,18.90714285714285,4279.27,4217.5,6212.200000000001,0.0,0
010044G,6,True,1,1,44 Githurai,-1.195514202,36.9026953,0.0857142857142857,0.6428571428571429,0.0,18.90714285714285,4279.27,4217.5,6212.200000000001,0.0,0
0100A.P,6,True,1,1,A.P.,-1.178289056,36.91195965,0.0857142857142857,0.6428571428571429,0.0,18.90714285714285,4279.27,4217.5,6212.200000000001,0.0,0
0100AAA,6,True,1,1,Sahala,-1.206232309,36.79068089,0.0857142857142857,0.6428571428571429,0.0,18.90714285714285,4279.27,4217.5,6212.200000000001,0.0,0
0100AAE,6,True,1,1,Aga Khan Hospital Entrance,-1.26177,36.82218,0.0857142857142857,0.6428571428571429,0.0,18.90714285714285,4279.27,4217.5,6212.200000000001,0.0,0
0100ACP,6,True,1,1,PCEA,-1.184212893,36.90751523,0.0857142857142857,0.6428571428571429,0.0,18.90714285714285,4279.27,4217.5,6212.200000000001,0.0,0
0100AEI,6,True,1,1,Nyari Police,-1.225512028,36.78804159,0.0857142857142857,0.6428571428571429,0.0,18.90714285714285,4279.27,4217.5,6212.200000000001,0.0,0
0100AEL,6,True,1,1,Membley Stage,-1.160296798,36.92236662,0.0857142857142857,0.6428571428571429,0.0,18.90714285714285,4279.27,4217.5,6212.200000000001,0.0,0
0100AKA,6,True,1,1,Chamoka,-1.218550569,36.77443743,0.0857142857142857,0.6428571428571429,0.0,18.90714285714285,4279.27,4217.5,6212.200000000001,0.0,0
0100AL2,6,True,1,1,Lane 26,-1.202838153,36.7692849,0.0857142857142857,0.6428571428571429,0.0,18.90714285714285,4279.27,4217.5,6212.200000000001,0.0,0
0100AMY,7,True,1,1,Kwa Nyama,-1.204494238,36.78601384,0.0571428571428571,0.5,0.0,20.92142857142857,3847.35,3883.0,5704.700000000003,0.0,0
0100ANJ,6,True,1,1,Kwa Kiwanja,-1.171676248,36.91650867,0.0857142857142857,0.6428571428571429,0.0,18.90714285714285,4279.27,4217.5,6212.200000000001,0.0,0
0100APC,6,True,1,1,PCEA,-1.188633174,36.73722178,0.0857142857142857,0.6428571428571429,0.0,18.90714285714285,4279.27,4217.5,6212.200000000001,0.0,0
0100ARG,6,True,1,1,Arya Girls' Secondary School,-1.26081,36.81997,0.0857142857142857,0.6428571428571429,0.0,18.90714285714285,4279.27,4217.5,6212.200000000001,0.0,0
0100ARI,6,True,1,1,Kwa Daktari,-1.185328692,36.73338085,0.0857142857142857,0.6428571428571429,0.0,18.90714285714285,4279.27,4217.5,6212.200000000001,0.0,0
0100ASD,6,True,2,1,Ambassadors,-1.19794,36.75537,0.0857142857142857,0.6428571428571429,0.0,18.90714285714285,4279.27,4217.5,6212.200000000001,0.0,0
0100ASW,7,True,1,1,Car Wash,-1.204816103,36.78255916,0.0571428571428571,0.5,0.0,20.92142857142857,3847.35,3883.0,5704.700000000003,0.0,0
0100AWA,6,True,1,1,Wataalam,-1.149612397,36.94740772,0.0857142857142857,0.6428571428571429,0.0,18.90714285714285,4279.27,4217.5,6212.200000000001,0.0,0
0100BKH,6,True,1,1,Bypass Stage Kiambu,-1.215780973,36.83506072,0.0857142857142857,0.6428571428571429,0.0,18.90714285714285,4279.27,4217.5,6212.200000000001,0.0,0
0100BKK,6,True,1,1,Kabuku,-1.154729247,36.67456269,0.0857142857142857,0.6428571428571429,0.0,18.90714285714285,4279.27,4217.5,6212.200000000001,0.0,0
0100BLD,6,True,1,1,God's Ability,-1.202671891,36.76871896,0.0857142857142857,0.6428571428571429,0.0,18.90714285714285,4279.27,4217.5,6212.200000000001,0.0,0
0100CAR,6,True,1,1,Kwa Machiri,-1.17373082,36.71296388,0.0857142857142857,0.6428571428571429,0.0,18.90714285714285,4279.27,4217.5,6212.200000000001,0.0,0
0100CBR,6,True,1,1,Cooperative Bank Ruaka,-1.20678,36.78464,0.0857142857142857,0.6428571428571429,0.0,18.90714285714285,4279.27,4217.5,6212.200000000001,0.0,0
0100CBR,7,True,1,1,Cooperative Bank Ruaka,-1.20678,36.78464,0.0571428571428571,0.5,0.0,20.92142857142857,3847.35,3883.0,5704.700000000003,0.0,0
0100CCD,6,True,1,1,Coca Cola Depot,-1.25983,36.8176,0.0857142857142857,0.6428571428571429,0.0,18.90714285714285,4279.27,4217.5,6212.200000000001,0.0,0
0100CHE,6,True,1,1,Commission Of Higher Education,-1.227579,36.797994,0.0857142857142857,0.6428571428571429,0.0,18.90714285714285,4279.27,4217.5,6212.200000000001,0.0,0
0100CHL,6,True,2,1,Chantilly School,-1.181032,36.762044,0.0857142857142857,0.6428571428571429,0.0,18.90714285714285,4279.27,4217.5,6212.200000000001,0.0,0
0100CTC,6,True,2,1,Christco,-1.19626,36.75305,0.0857142857142857,0.6428571428571429,0.0,18.90714285714285,4279.27,4217.5,6212.200000000001,0.0,0
0100CTR,6,True,1,1,Doctor's Park,-1.261465877,36.82164699,0.0857142857142857,0.6428571428571429,0.0,18.90714285714285,4279.27,4217.5,6212.200000000001,0.0,0
0100DPA,6,True,4,1,Delta Petrol Station Ruaka/Border,-1.208925247,36.78782701,0.0857142857142857,0.6428571428571429,0.0,18.90714285714285,4279.27,4217.5,6212.200000000001,0.0,1
0100EIE,6,True,1,1,Mfereji,-1.203090316,36.77023709,0.0857142857142857,0.6428571428571429,0.0,18.90714285714285,4279.27,4217.5,6212.200000000001,0.0,0
0100EIL,6,True,1,1,Milele,-1.200815767,36.76228434,0.0857142857142857,0.6428571428571429,0.0,18.90714285714285,4279.27,4217.5,6212.200000000001,0.0,0
0100EIO,6,True,1,1,Sovereign,-1.169498205,36.70019388,0.0857142857142857,0.6428571428571429,0.0,18.90714285714285,4279.27,4217.5,6212.200000000001,0.0,0
0100ESN,6,True,1,1,Dispensary,-1.190204948,36.73913687,0.0857142857142857,0.6428571428571429,0.0,18.90714285714285,4279.27,4217.5,6212.200000000001,0.0,0
0100GAO,6,True,1,1,Kahigo,-1.203959316,36.77340478,0.0857142857142857,0.6428571428571429,0.0,18.90714285714285,4279.27,4217.5,6212.200000000001,0.0,0
0100GUG,6,True,2,1,Guango,-1.195629,36.780871,0.0857142857142857,0.6428571428571429,0.0,18.90714285714285,4279.27,4217.5,6212.200000000001,0.0,0
0100GVS,6,True,1,1,Green Valley School,-1.124978,36.677156,0.0857142857142857,0.6428571428571429,0.0,18.90714285714285,4279.27,4217.5,6212.200000000001,0.0,0
0100HYD,6,True,1,1,Shady,-1.19387573,36.74975574,0.0857142857142857,0.6428571428571429,0.0,18.90714285714285,4279.27,4217.5,6212.200000000001,0.0,0
0100IKW,6,True,1,1,Kwa Viti,-1.186262101,36.73443764,0.0857142857142857,0.6428571428571429,0.0,18.90714285714285,4279.27,4217.5,6212.200000000001,0.0,0
0100ILL,6,True,1,1,Milele,-1.204420656,36.77496046,0.0857142857142857,0.6428571428571429,0.0,18.90714285714285,4279.27,4217.5,6212.200000000001,0.0,0
0100INT,6,True,1,1,Nish Raaj Estate,-1.257623434,36.81249261,0.0857142857142857,0.6428571428571429,0.0,18.90714285714285,4279.27,4217.5,6212.200000000001,0.0,0
0100ITS,6,True,1,1,Gwaiti,-1.18686676,36.73514843,0.0857142857142857,0.6428571428571429,0.0,18.90714285714285,4279.27,4217.5,6212.200000000001,0.0,0
0100JAK,6,True,1,1,Jakai,-1.219687,36.77222,0.0857142857142857,0.6428571428571429,0.0,18.90714285714285,4279.27,4217.5,6212.200000000001,0.0,0
0100JO.,6,True,1,1,O.J,-1.152970523,36.92023158,0.0857142857142857,0.6428571428571429,0.0,18.90714285714285,4279.27,4217.5,6212.200000000001,0.0,0
0100JOA,6,True,1,1,Kianjogu,-1.183204383,36.73027486,0.0857142857142857,0.6428571428571429,0.0,18.90714285714285,4279.27,4217.5,6212.200000000001,0.0,0
0100JYL,6,True,1,1,Joyland,-1.204896569,36.77661538,0.0857142857142857,0.6428571428571429,0.0,18.90714285714285,4279.27,4217.5,6212.200000000001,0.0,0
0100KCK,6,True,1,1,Kenchic,-1.132722,36.69801,0.0857142857142857,0.6428571428571429,0.0,18.90714285714285,4279.27,4217.5,6212.200000000001,0.0,0
0100KHR,6,True,1,1,Kahawa Railways Roundabout,-1.186098,36.906817,0.0857142857142857,0.6428571428571429,0.0,18.90714285714285,4279.27,4217.5,6212.200000000001,0.0,0
0100KMU,6,True,1,1,Kwa Sukuma,-1.179068416,36.72405213,0.0857142857142857,0.6428571428571429,0.0,18.90714285714285,4279.27,4217.5,6212.200000000001,0.0,0
0100KNA,6,True,1,1,Kona,-1.221391,36.779214,0.0857142857142857,0.6428571428571429,0.0,18.90714285714285,4279.27,4217.5,6212.200000000001,0.0,0
0100KNE,6,True,1,1,Kwa Njenga,-1.220363742,36.77845538,0.0857142857142857,0.6428571428571429,0.0,18.90714285714285,4279.27,4217.5,6212.200000000001,0.0,0
0100KSS,6,True,2,1,Kwa Shule/Seth Home Of Love Children's Home/Muchatha Dispensary,-1.189608,36.773253,0.0857142857142857,0.6428571428571429,0.0,18.90714285714285,4279.27,4217.5,6212.200000000001,0.0,0
0100KTC,6,True,2,1,Quickmart,-1.206720471,36.78343892,0.0857142857142857,0.6428571428571429,0.0,18.90714285714285,4279.27,4217.5,6212.200000000001,0.0,0
0100KWH,6,True,1,1,Kwa Chief,-1.216485232,36.82175428,0.0857142857142857,0.6428571428571429,0.0,18.90714285714285,4279.27,4217.5,6212.200000000001,0.0,0
0100LDL,6,True,1,1,Redhill,-1.169991821,36.7014733,0.0857142857142857,0.6428571428571429,0.0,18.90714285714285,4279.27,4217.5,6212.200000000001,0.0,0
0100LHH,7,True,1,1,Jamhuri School,-1.27250433,36.82257503,0.0571428571428571,0.5,0.0,20.92142857142857,3847.35,3883.0,5704.700000000003,0.0,0
0100LIK,6,True,2,1,Likoni,-1.179095,36.760938,0.0857142857142857,0.6428571428571429,0.0,18.90714285714285,4279.27,4217.5,6212.200000000001,0.0,0
0100LMC,6,True,1,1,Limuru Catering,-1.124471,36.679689,0.0857142857142857,0.6428571428571429,0.0,18.90714285714285,4279.27,4217.5,6212.200000000001,0.0,0
0100LPS,6,True,1,1,Limuru Post Office,-1.118464,36.643126,0.0857142857142857,0.6428571428571429,0.0,18.90714285714285,4279.27,4217.5,6212.200000000001,0.0,0
0100LSM,6,True,2,1,Life Sanctuary/Muchatha,-1.191495,36.775223,0.0857142857142857,0.6428571428571429,0.0,18.90714285714285,4279.27,4217.5,6212.200000000001,0.0,0
0100MCO,6,True,1,1,Stima Sacco,-1.272774106,36.8208611,0.0857142857142857,0.6428571428571429,0.0,18.90714285714285,4279.27,4217.5,6212.200000000001,0.0,0
0100MCY,6,True,1,1,Mothers Mercys/GD,-1.179957,36.725401,0.0857142857142857,0.6428571428571429,0.0,18.90714285714285,4279.27,4217.5,6212.200000000001,0.0,0
0100MFB,6,True,2,1,Mifereji/God's Ability,-1.20213,36.76693,0.0857142857142857,0.6428571428571429,0.0,18.90714285714285,4279.27,4217.5,6212.200000000001,0.0,0
0100MIS,6,True,2,1,Mary Immaculate Secondary School/Muchatha,-1.190679,36.774297,0.0857142857142857,0.6428571428571429,0.0,18.90714285714285,4279.27,4217.5,6212.200000000001,0.0,0
0100MOM,6,True,2,1,Mombasa,-1.17786,36.760345,0.0857142857142857,0.6428571428571429,0.0,18.90714285714285,4279.27,4217.5,6212.200000000001,0.0,0
0100MOU,6,True,1,1,Mugumo,-1.209636211,36.79986477,0.0857142857142857,0.6428571428571429,0.0,18.90714285714285,4279.27,4217.5,6212.200000000001,0.0,0
0100MRB,6,True,1,1,Maramba Tea Factory,-1.134476,36.703498,0.0857142857142857,0.6428571428571429,0.0,18.90714285714285,4279.27,4217.5,6212.200000000001,0.0,0
0100MRC,6,True,4,1,Movers/Rosslyn Centre,-1.210947633,36.79020882,0.0857142857142857,0.6428571428571429,0.0,18.90714285714285,4279.27,4217.5,6212.200000000001,0.0,1
0100MRC,7,True,1,1,Movers/Rosslyn Centre,-1.210947633,36.79020882,0.0571428571428571,0.5,0.0,20.92142857142857,3847.35,3883.0,5704.700000000003,0.0,0
0100NAM,6,True,2,1,National Oil/Muchatha,-1.193428,36.777892,0.0857142857142857,0.6428571428571429,0.0,18.90714285714285,4279.27,4217.5,6212.200000000001,0.0,0
0100NCE,6,True,1,1,Container,-1.20452258,36.77553982,0.0857142857142857,0.6428571428571429,0.0,18.90714285714285,4279.27,4217.5,6212.200000000001,0.0,0
0100NDT,6,True,2,1,Ndenderu Junction,-1.19233,36.7437,0.0857142857142857,0.6428571428571429,0.0,18.90714285714285,4279.27,4217.5,6212.200000000001,0.0,0
0100NJT,6,True,2,1,Kwa Njoki/Thimbigwa Ack,-1.183852,36.763684,0.0857142857142857,0.6428571428571429,0.0,18.90714285714285,4279.27,4217.5,6212.200000000001,0.0,0
0100NKD,6,True,1,1,Ndenderu Kwa Maduka,-1.19449,36.75061,0.0857142857142857,0.6428571428571429,0.0,18.90714285714285,4279.27,4217.5,6212.200000000001,0.0,0
0100NMT,6,True,1,1,New Muthaiga,-1.228621,36.798616,0.0857142857142857,0.6428571428571429,0.0,18.90714285714285,4279.27,4217.5,6212.200000000001,0.0,0
0100NRP,6,True,1,1,Round About Eastern Bypass,-1.155235,36.926119,0.0857142857142857,0.6428571428571429,0.0,18.90714285714285,4279.27,4217.5,6212.200000000001,0.0,0
0100NSO,6,True,2,1,Movers,-1.210058659,36.7891708,0.0857142857142857,0.6428571428571429,0.0,18.90714285714285,4279.27,4217.5,6212.200000000001,0.0,0
0100ONO,6,True,1,1,Ngomongo,-1.202822059,36.89014524,0.0857142857142857,0.6428571428571429,0.0,18.90714285714285,4279.27,4217.5,6212.200000000001,0.0,0
0100OOA,6,True,1,1,Kwa Soko,-1.149789423,36.94882929,0.0857142857142857,0.6428571428571429,0.0,18.90714285714285,4279.27,4217.5,6212.200000000001,0.0,0
0100OTN,6,True,1,1,Hilton,-1.150637001,36.94259048,0.0857142857142857,0.6428571428571429,0.0,18.90714285714285,4279.27,4217.5,6212.200000000001,0.0,0
0100OTS,6,True,1,1,Posta,-1.170669078,36.70802593,0.0857142857142857,0.6428571428571429,0.0,18.90714285714285,4279.27,4217.5,6212.200000000001,0.0,0
0100PEF,6,True,2,1,Pefa/All Nations/Muchatha,-1.197129,36.782933,0.0857142857142857,0.6428571428571429,0.0,18.90714285714285,4279.27,4217.5,6212.200000000001,0.0,0
0100PNA,6,True,1,1,Amani Plaza,-1.259625882,36.81713551,0.0857142857142857,0.6428571428571429,0.0,18.90714285714285,4279.27,4217.5,6212.200000000001,0.0,0
0100POA,6,True,1,1,Pa Mutoori,-1.202194422,36.76717132,0.0857142857142857,0.6428571428571429,0.0,18.90714285714285,4279.27,4217.5,6212.200000000001,0.0,0
0100POW,6,True,1,1,Power,-1.21731,36.778253,0.0857142857142857,0.6428571428571429,0.0,18.90714285714285,4279.27,4217.5,6212.200000000001,0.0,0
0100PSA,6,True,1,1,La Philla Carwash,-1.190634102,36.90608829,0.0857142857142857,0.6428571428571429,0.0,18.90714285714285,4279.27,4217.5,6212.200000000001,0.0,0
0100RBJ,6,True,4,1,Ruaka/Banana Junction/Tuskys Supermarket,-1.20722,36.78602,0.0857142857142857,0.6428571428571429,0.0,18.90714285714285,4279.27,4217.5,6212.200000000001,0.0,1
0100RBJ,7,True,1,1,Ruaka/Banana Junction/Tuskys Supermarket,-1.20722,36.78602,0.0571428571428571,0.5,0.0,20.92142857142857,3847.35,3883.0,5704.700000000003,0.0,0
0100RCN,6,True,2,1,Ruaka Catholic Church Entrance,-1.20614,36.78059,0.0857142857142857,0.6428571428571429,0.0,18.90714285714285,4279.27,4217.5,6212.200000000001,0.0,0
0100REE,6,True,1,1,PCEA Ndenderu,-1.195537216,36.75203025,0.0857142857142857,0.6428571428571429,0.0,18.90714285714285,4279.27,4217.5,6212.200000000001,0.0,0
0100RES,6,True,4,1,Runda Estate Entrance,-1.21873,36.80177,0.0857142857142857,0.6428571428571429,0.0,18.90714285714285,4279.27,4217.5,6212.200000000001,0.0,1
0100RES,7,True,1,1,Runda Estate Entrance,-1.21873,36.80177,0.0571428571428571,0.5,0.0,20.92142857142857,3847.35,3883.0,5704.700000000003,0.0,0
0100RGH,6,True,3,1,Jamhuri High School,-1.272203922,36.82239532,0.0857142857142857,0.6428571428571429,0.0,18.90714285714285,4279.27,4217.5,6212.200000000001,0.0,1
0100RJI,6,True,1,1,Ruiru Road Junction,-1.152105331,36.9199419,0.0857142857142857,0.6428571428571429,0.0,18.90714285714285,4279.27,4217.5,6212.200000000001,0.0,0
0100RKH,6,True,4,1,Runda/Karura Carwash,-1.22091,36.80144,0.0857142857142857,0.6428571428571429,0.0,18.90714285714285,4279.27,4217.5,6212.200000000001,0.0,1
0100RKH,7,True,1,1,Runda/Karura Carwash,-1.22091,36.80144,0.0571428571428571,0.5,0.0,20.92142857142857,3847.35,3883.0,5704.700000000003,0.0,0
0100RRD,6,True,2,1,Ruaka Redeemed Gospel Church,-1.20651,36.78206,0.0857142857142857,0.6428571428571429,0.0,18.90714285714285,4279.27,4217.5,6212.200000000001,0.0,0
0100RRJ,6,True,3,1,Redhill Road Junction,-1.23398,36.80339,0.0857142857142857,0.6428571428571429,0.0,18.90714285714285,4279.27,4217.5,6212.200000000001,0.0,1
0100RRJ,7,True,2,1,Redhill Road Junction,-1.23398,36.80339,0.0571428571428571,0.5,0.0,20.92142857142857,3847.35,3883.0,5704.700000000003,0.0,0
0100RRP,6,True,4,1,Rosslyn Road/Karura Community Chapel,-1.216397882,36.79927468,0.0857142857142857,0.6428571428571429,0.0,18.90714285714285,4279.27,4217.5,6212.200000000001,0.0,1
0100RRP,7,True,1,1,Rosslyn Road/Karura Community Chapel,-1.216397882,36.79927468,0.0571428571428571,0.5,0.0,20.92142857142857,3847.35,3883.0,5704.700000000003,0.0,0
0100RUD,6,True,1,1,Runda Road,-1.215553,36.814957,0.0857142857142857,0.6428571428571429,0.0,18.90714285714285,4279.27,4217.5,6212.200000000001,0.0,0
0100RUI,6,True,1,1,Marurui/JuaKali,-1.211281747,36.87443823,0.0857142857142857,0.6428571428571429,0.0,18.90714285714285,4279.27,4217.5,6212.200000000001,0.0,0
0100RYA,6,True,2,1,Rumenye,-1.199644804,36.75815105,0.0857142857142857,0.6428571428571429,0.0,18.90714285714285,4279.27,4217.5,6212.200000000001,0.0,0
0100S/R,7,True,1,1,Rosslyn Road/Riviera,-1.217128962,36.80043072,0.0571428571428571,0.5,0.0,20.92142857142857,3847.35,3883.0,5704.700000000003,0.0,0
0100SAR,6,True,1,1,Car Wash,-1.217005616,36.77721083,0.0857142857142857,0.6428571428571429,0.0,18.90714285714285,4279.27,4217.5,6212.200000000001,0.0,0
0100SHT,6,True,2,1,Sacred Heart,-1.186278,36.767456,0.0857142857142857,0.6428571428571429,0.0,18.90714285714285,4279.27,4217.5,6212.200000000001,0.0,0
0100SKU,6,True,1,1,Kibutu Stage,-1.188273758,36.77131802,0.0857142857142857,0.6428571428571429,0.0,18.90714285714285,4279.27,4217.5,6212.200000000001,0.0,0
0100SLG,6,True,2,1,Slaughter/Bypass,-1.20578,36.78005,0.0857142857142857,0.6428571428571429,0.0,18.90714285714285,4279.27,4217.5,6212.200000000001,0.0,0
0100SNW,6,True,1,1,Good News/Nyari Gate 2,-1.225479841,36.79151773,0.0857142857142857,0.6428571428571429,0.0,18.90714285714285,4279.27,4217.5,6212.200000000001,0.0,0
0100STI,6,True,1,1,Site,-1.178033084,36.7224589,0.0857142857142857,0.6428571428571429,0.0,18.90714285714285,4279.27,4217.5,6212.200000000001,0.0,0
0100T1I,6,True,1,1,Barrier 1/Nyari Gate 1,-1.226568818,36.79569393,0.0857142857142857,0.6428571428571429,0.0,18.90714285714285,4279.27,4217.5,6212.200000000001,0.0,0
0100TCP,6,True,3,1,Total/City Park,-1.25943,36.82673,0.0857142857142857,0.6428571428571429,0.0,18.90714285714285,4279.27,4217.5,6212.200000000001,0.0,1
0100TCP,7,True,2,1,Total/City Park,-1.25943,36.82673,0.0571428571428571,0.5,0.0,20.92142857142857,3847.35,3883.0,5704.700000000003,0.0,0
0100TIG,6,True,1,1,Tigoni,-1.126686,36.671788,0.0857142857142857,0.6428571428571429,0.0,18.90714285714285,4279.27,4217.5,6212.200000000001,0.0,0
0100TOR,6,True,1,1,Metro,-1.215183198,36.85956538,0.0857142857142857,0.6428571428571429,0.0,18.90714285714285,4279.27,4217.5,6212.200000000001,0.0,0
0100TPS,6,True,1,1,Post,-1.149687499,36.94552481,0.0857142857142857,0.6428571428571429,0.0,18.90714285714285,4279.27,4217.5,6212.200000000001,0.0,0
0100TTM,6,True,2,1,Total/Muchatha,-1.193078,36.777371,0.0857142857142857,0.6428571428571429,0.0,18.90714285714285,4279.27,4217.5,6212.200000000001,0.0,0
0100UBP,6,True,1,1,Bumps,-1.206464499,36.78183764,0.0857142857142857,0.6428571428571429,0.0,18.90714285714285,4279.27,4217.5,6212.200000000001,0.0,0
0100UEA,7,True,1,1,Delta Petrol Station Ruaka/Border,-1.208792657,36.78792626,0.0571428571428571,0.5,0.0,20.92142857142857,3847.35,3883.0,5704.700000000003,0.0,0
0100UMA,6,True,1,1,Munata,-1.220374471,36.76839173,0.0857142857142857,0.6428571428571429,0.0,18.90714285714285,4279.27,4217.5,6212.200000000001,0.0,0
0100UMT,6,True,1,1,Makutano,-1.192345351,36.74523085,0.0857142857142857,0.6428571428571429,0.0,18.90714285714285,4279.27,4217.5,6212.200000000001,0.0,0
0100VDA,6,True,1,1,Victory Gospel/Sda,-1.19432,36.7429,0.0857142857142857,0.6428571428571429,0.0,18.90714285714285,4279.27,4217.5,6212.200000000001,0.0,0
0100VEV,6,True,2,1,Velvet Lounge/Kigwaru,-1.202782,36.785553,0.0857142857142857,0.6428571428571429,0.0,18.90714285714285,4279.27,4217.5,6212.200000000001,0.0,0
0100VIN,6,True,2,1,Victory Inn,-1.181773,36.762476,0.0857142857142857,0.6428571428571429,0.0,18.90714285714285,4279.27,4217.5,6212.200000000001,0.0,0
0100VLU,6,True,1,1,6th Parklands Avenue/Regal House/Kobil,-1.257893175,36.8269524,0.0857142857142857,0.6428571428571429,0.0,18.90714285714285,4279.27,4217.5,6212.200000000001,0.0,0
0100VLU,7,True,1,1,6th Parklands Avenue/Regal House/Kobil,-1.257893175,36.8269524,0.0571428571428571,0.5,0.0,20.92142857142857,3847.35,3883.0,5704.700000000003,0.0,0
0100WSI,6,True,1,1,Nyari West,-1.225469112,36.78594947,0.0857142857142857,0.6428571428571429,0.0,18.90714285714285,4279.27,4217.5,6212.200000000001,0.0,0
0100XAM,6,True,1,1,Maxx,-1.182002753,36.72858506,0.0857142857142857,0.6428571428571429,0.0,18.90714285714285,4279.27,4217.5,6212.200000000001,0.0,0
0101AGA,6,True,6,1,Aga Khan Academy,-1.26628,36.82331,0.0857142857142857,0.6428571428571429,0.0,18.90714285714285,4279.27,4217.5,6212.200000000001,0.0,1
0101AKE,6,True,1,1,Aga Khan Entrance,-1.26178,36.82224,0.0857142857142857,0.6428571428571429,0.0,18.90714285714285,4279.27,4217.5,6212.200000000001,0.0,0
0101AKH,6,True,1,1,Aga Khan Hospital Junction/3rd Parklands Ave,-1.26288,36.8249,0.0857142857142857,0.6428571428571429,0.0,18.90714285714285,4279.27,4217.5,6212.200000000001,0.0,0
0101AKN,6,True,1,1,Kwa Nyama,-1.204490429,36.78601921,0.0857142857142857,0.6428571428571429,0.0,18.90714285714285,4279.27,4217.5,6212.200000000001,0.0,0
0101ALM,6,True,1,1,Amani Plaza/Almond Court,-1.25962,36.81717,0.0857142857142857,0.6428571428571429,0.0,18.90714285714285,4279.27,4217.5,6212.200000000001,0.0,0
0101AME,6,True,2,1,Ambassadors Entrance,-1.19804,36.75538,0.0857142857142857,0.6428571428571429,0.0,18.90714285714285,4279.27,4217.5,6212.200000000001,0.0,0
0101ARA,6,True,1,1,Garage,-1.222203738,36.78044558,0.0857142857142857,0.6428571428571429,0.0,18.90714285714285,4279.27,4217.5,6212.200000000001,0.0,0
0101ARC,6,True,1,1,Car Wash,-1.204839116,36.78251624,0.0857142857142857,0.6428571428571429,0.0,18.90714285714285,4279.27,4217.5,6212.200000000001,0.0,0
0101ARR,6,True,1,1,Nish Raaj/Mulberry,-1.257580519,36.81246042,0.0857142857142857,0.6428571428571429,0.0,18.90714285714285,4279.27,4217.5,6212.200000000001,0.0,0
0101ARY,6,True,1,1,Arya Girls' Secondary School,-1.26085,36.82007,0.0857142857142857,0.6428571428571429,0.0,18.90714285714285,4279.27,4217.5,6212.200000000001,0.0,0
0101BKH,6,True,1,1,Bypass Stage Kiambu,-1.215448,36.83521,0.0857142857142857,0.6428571428571429,0.0,18.90714285714285,4279.27,4217.5,6212.200000000001,0.0,0
0101BLU,7,True,1,1,Blue Kiosk Stage,-1.154688,36.675681,0.0571428571428571,0.5,0.0,20.92142857142857,3847.35,3883.0,5704.700000000003,0.0,0
0101CAV,6,True,2,1,Church Of Acts/Velvet Lounge,-1.203525,36.785397,0.0857142857142857,0.6428571428571429,0.0,18.90714285714285,4279.27,4217.5,6212.200000000001,0.0,0
0101CEF,6,True,1,1,Kwa Chief,-1.216447681,36.8218857,0.0857142857142857,0.6428571428571429,0.0,18.90714285714285,4279.27,4217.5,6212.200000000001,0.0,0
0101CHC,6,True,2,1,Christco Church,-1.19628,36.75294,0.0857142857142857,0.6428571428571429,0.0,18.90714285714285,4279.27,4217.5,6212.200000000001,0.0,0
0101CHF,6,True,1,1,Sub Chief,-1.219799,36.778197,0.0857142857142857,0.6428571428571429,0.0,18.90714285714285,4279.27,4217.5,6212.200000000001,0.0,0
0101CPK,6,True,5,1,City Park,-1.26057,36.82615,0.0857142857142857,0.6428571428571429,0.0,18.90714285714285,4279.27,4217.5,6212.200000000001,0.0,1
0101DGG,6,True,1,1,Ridgesways Girls,-1.215046,36.864683,0.0857142857142857,0.6428571428571429,0.0,18.90714285714285,4279.27,4217.5,6212.200000000001,0.0,0
0101DPB,6,True,5,1,Delta Petrol Station/Border,-1.20918,36.7882,0.0857142857142857,0.6428571428571429,0.0,18.90714285714285,4279.27,4217.5,6212.200000000001,0.0,1
0101ETA,7,True,1,1,Marrieta,-1.143779,36.661749,0.0571428571428571,0.5,0.0,20.92142857142857,3847.35,3883.0,5704.700000000003,0.0,0
0101FRK,6,True,2,1,Furaha/Kag Ndenderu/Catholic,-1.1954,36.75175,0.0857142857142857,0.6428571428571429,0.0,18.90714285714285,4279.27,4217.5,6212.200000000001,0.0,0
0101GOG,6,True,2,1,Guango,-1.195673,36.780783,0.0857142857142857,0.6428571428571429,0.0,18.90714285714285,4279.27,4217.5,6212.200000000001,0.0,0
0101GRJ,6,True,2,1,Gacharage Junction,-1.20041,36.76058,0.0857142857142857,0.6428571428571429,0.0,18.90714285714285,4279.27,4217.5,6212.200000000001,0.0,0
0101GVS,7,True,1,1,Green Valley School,-1.125007,36.677194,0.0571428571428571,0.5,0.0,20.92142857142857,3847.35,3883.0,5704.700000000003,0.0,0
0101HMO,6,True,1,1,Chamoka,-1.218749052,36.77409947,0.0857142857142857,0.6428571428571429,0.0,18.90714285714285,4279.27,4217.5,6212.200000000001,0.0,0
0101HUS,6,True,1,1,SDA Church,-1.220481759,36.76972747,0.0857142857142857,0.6428571428571429,0.0,18.90714285714285,4279.27,4217.5,6212.200000000001,0.0,0
0101HWO,6,True,1,1,Mwisho Road,-1.222670442,36.78127706,0.0857142857142857,0.6428571428571429,0.0,18.90714285714285,4279.27,4217.5,6212.200000000001,0.0,0
0101IAI,7,True,1,1,Gwaiti,-1.18060112,36.7263186,0.0571428571428571,0.5,0.0,20.92142857142857,3847.35,3883.0,5704.700000000003,0.0,0
0101IGA,6,True,1,1,Kahigo,-1.203356981,36.77130997,0.0857142857142857,0.6428571428571429,0.0,18.90714285714285,4279.27,4217.5,6212.200000000001,0.0,0
0101ION,7,True,1,1,Junction To Limuru Town,-1.133245,36.643564,0.0571428571428571,0.5,0.0,20.92142857142857,3847.35,3883.0,5704.700000000003,0.0,0
0101IRR,6,True,1,1,River,-1.221822864,36.77986622,0.0857142857142857,0.6428571428571429,0.0,18.90714285714285,4279.27,4217.5,6212.200000000001,0.0,0
0101JAK,6,True,1,1,Jakai,-1.219745,36.772222,0.0857142857142857,0.6428571428571429,0.0,18.90714285714285,4279.27,4217.5,6212.200000000001,0.0,0
0101JHS,6,True,6,1,Jamhuri High School,-1.27335,36.82297,0.0857142857142857,0.6428571428571429,0.0,18.90714285714285,4279.27,4217.5,6212.200000000001,0.0,1
0101JLI,6,True,1,1,Jua Kali,-1.211161,36.874486,0.0857142857142857,0.6428571428571429,0.0,18.90714285714285,4279.27,4217.5,6212.200000000001,0.0,0
0101KAT,6,True,2,1,Kwa Njoki/Ack Thimbigwa,-1.183893,36.763636,0.0857142857142857,0.6428571428571429,0.0,18.90714285714285,4279.27,4217.5,6212.200000000001,0.0,0
0101KCK,7,True,1,1,Kenchic,-1.132763,36.697946,0.0571428571428571,0.5,0.0,20.92142857142857,3847.35,3883.0,5704.700000000003,0.0,0
0101KHR,6,True,1,1,Kahawa Railways Roundabout,-1.185664,36.906667,0.0857142857142857,0.6428571428571429,0.0,18.90714285714285,4279.27,4217.5,6212.200000000001,0.0,0
0101KKB,6,True,1,1,Kamukabi,-1.222324,36.780623,0.0857142857142857,0.6428571428571429,0.0,18.90714285714285,4279.27,4217.5,6212.200000000001,0.0,0
0101KME,7,True,1,1,Kimera Medical Centre,-1.146608,36.716753,0.0571428571428571,0.5,0.0,20.92142857142857,3847.35,3883.0,5704.700000000003,0.0,0
0101KOB,6,True,2,1,Kobil/Banana,-1.17466,36.759053,0.0857142857142857,0.6428571428571429,0.0,18.90714285714285,4279.27,4217.5,6212.200000000001,0.0,0
0101KTO,6,True,2,1,Kwa Moturi/Gachiraini,-1.20202,36.7662,0.0857142857142857,0.6428571428571429,0.0,18.90714285714285,4279.27,4217.5,6212.200000000001,0.0,0
0101LIK,6,True,2,1,Likoni,-1.178733,36.760654,0.0857142857142857,0.6428571428571429,0.0,18.90714285714285,4279.27,4217.5,6212.200000000001,0.0,0
0101LMA,6,True,1,1,Mlanda,-1.219961411,36.76738858,0.0857142857142857,0.6428571428571429,0.0,18.90714285714285,4279.27,4217.5,6212.200000000001,0.0,0
0101LMC,7,True,1,1,Limuru Catering,-1.124567,36.679518,0.0571428571428571,0.5,0.0,20.92142857142857,3847.35,3883.0,5704.700000000003,0.0,0
0101LSC,6,True,2,1,Life Sanctuary Church/Muchatha Shopping Centre,-1.19145,36.775071,0.0857142857142857,0.6428571428571429,0.0,18.90714285714285,4279.27,4217.5,6212.200000000001,0.0,0
0101M.K,6,True,1,1,K.M.,-1.16617772,36.91985339,0.0857142857142857,0.6428571428571429,0.0,18.90714285714285,4279.27,4217.5,6212.200000000001,0.0,0
0101MCC,6,True,2,1,Muchatha Shopping Centre,-1.192055,36.775879,0.0857142857142857,0.6428571428571429,0.0,18.90714285714285,4279.27,4217.5,6212.200000000001,0.0,0
0101MCY,7,True,1,1,Mothers Mercys,-1.180059,36.725487,0.0571428571428571,0.5,0.0,20.92142857142857,3847.35,3883.0,5704.700000000003,0.0,0
0101MDS,6,True,2,1,Muchatha Dispensary/Kwa Shule/Yamongo Drive,-1.189723,36.773257,0.0857142857142857,0.6428571428571429,0.0,18.90714285714285,4279.27,4217.5,6212.200000000001,0.0,0
0101MIC,6,True,2,1,Mary Immaculate Catholic Church/Muchatha Shopping Centre,-1.190698,36.774211,0.0857142857142857,0.6428571428571429,0.0,18.90714285714285,4279.27,4217.5,6212.200000000001,0.0,0
0101MIM,6,True,1,1,Mimosa,-1.212005,36.804767,0.0857142857142857,0.6428571428571429,0.0,18.90714285714285,4279.27,4217.5,6212.200000000001,0.0,0
0101MKB,6,True,2,1,Mkulima Supermarket/Banana,-1.175287,36.759291,0.0857142857142857,0.6428571428571429,0.0,18.90714285714285,4279.27,4217.5,6212.200000000001,0.0,0
0101MOM,6,True,2,1,Mombasa,-1.177906,36.760269,0.0857142857142857,0.6428571428571429,0.0,18.90714285714285,4279.27,4217.5,6212.200000000001,0.0,0
0101MRB,7,True,1,1,Maramba Tea Factory,-1.134492,36.703458,0.0571428571428571,0.5,0.0,20.92142857142857,3847.35,3883.0,5704.700000000003,0.0,0
0101MTH,6,True,1,1,Muthaiga Junction,-1.228633,36.798518,0.0857142857142857,0.6428571428571429,0.0,18.90714285714285,4279.27,4217.5,6212.200000000001,0.0,0
0101MUC,6,True,2,1,Redeemed/Pefa Muchatha,-1.197213,36.782874,0.0857142857142857,0.6428571428571429,0.0,18.90714285714285,4279.27,4217.5,6212.200000000001,0.0,0
0101N'G,6,True,1,1,Kwa Ng'ang'a,-1.217756635,36.77814424,0.0857142857142857,0.6428571428571429,0.0,18.90714285714285,4279.27,4217.5,6212.200000000001,0.0,0
0101NDJ,6,True,1,1,Ndenderu Junction/Makutano,-1.192266,36.743758,0.0857142857142857,0.6428571428571429,0.0,18.90714285714285,4279.27,4217.5,6212.200000000001,0.0,0
0101NGG,6,True,1,1,Nyari Gate 3,-1.225371,36.785596,0.0857142857142857,0.6428571428571429,0.0,18.90714285714285,4279.27,4217.5,6212.200000000001,0.0,0
0101NJK,6,True,2,1,Kwa Njoki Kamili,-1.184899,36.764492,0.0857142857142857,0.6428571428571429,0.0,18.90714285714285,4279.27,4217.5,6212.200000000001,0.0,0
0101NRE,6,True,1,1,Nish Raaj Estate,-1.25862,36.81484,0.0857142857142857,0.6428571428571429,0.0,18.90714285714285,4279.27,4217.5,6212.200000000001,0.0,0
0101NRP,6,True,1,1,Roundabout Eastern Bypass,-1.155165,36.926129,0.0857142857142857,0.6428571428571429,0.0,18.90714285714285,4279.27,4217.5,6212.200000000001,0.0,0
0101NTO,6,True,2,1,Kwa Kanisa ACK/National Oil,-1.193291,36.777536,0.0857142857142857,0.6428571428571429,0.0,18.90714285714285,4279.27,4217.5,6212.200000000001,0.0,0
0101NYG,6,True,1,1,Nyari Gate 2,-1.225544,36.791386,0.0857142857142857,0.6428571428571429,0.0,18.90714285714285,4279.27,4217.5,6212.200000000001,0.0,0
0101NYP,6,True,1,1,Nyari Police,-1.225594,36.787764,0.0857142857142857,0.6428571428571429,0.0,18.90714285714285,4279.27,4217.5,6212.200000000001,0.0,0
0101NYR,6,True,1,1,Nyari/Barrier 1,-1.226487,36.795583,0.0857142857142857,0.6428571428571429,0.0,18.90714285714285,4279.27,4217.5,6212.200000000001,0.0,0
0101OOO,6,True,1,1,Githogoro,-1.216517419,36.82500243,0.0857142857142857,0.6428571428571429,0.0,18.90714285714285,4279.27,4217.5,6212.200000000001,0.0,0
0101OTA,6,True,1,1,National Oil,-1.193820602,36.74957335,0.0857142857142857,0.6428571428571429,0.0,18.90714285714285,4279.27,4217.5,6212.200000000001,0.0,0
0101PMR,6,True,2,1,Pm Flats/ Runda View,-1.20429,36.77439,0.0857142857142857,0.6428571428571429,0.0,18.90714285714285,4279.27,4217.5,6212.200000000001,0.0,0
0101PMV,6,True,2,1,Pm Flats/ Runda View 2,-1.20369,36.77218,0.0857142857142857,0.6428571428571429,0.0,18.90714285714285,4279.27,4217.5,6212.200000000001,0.0,0
0101POW,6,True,1,1,Power,-1.217477,36.778214,0.0857142857142857,0.6428571428571429,0.0,18.90714285714285,4279.27,4217.5,6212.200000000001,0.0,0
0101RCC,6,True,2,1,Ruaka Catholic Church,-1.2062,36.78055,0.0857142857142857,0.6428571428571429,0.0,18.90714285714285,4279.27,4217.5,6212.200000000001,0.0,0
0101RCK,6,True,2,1,Ruaka ACK Church,-1.20676,36.78382,0.0857142857142857,0.6428571428571429,0.0,18.90714285714285,4279.27,4217.5,6212.200000000001,0.0,0
0101RDC,6,True,2,1,Ruaka DC,-1.2065,36.78171,0.0857142857142857,0.6428571428571429,0.0,18.90714285714285,4279.27,4217.5,6212.200000000001,0.0,0
0101RED,7,True,1,1,Red Hill/Posta,-1.17081,36.708554,0.0571428571428571,0.5,0.0,20.92142857142857,3847.35,3883.0,5704.700000000003,0.0,0
0101REE,6,True,5,1,Runda Estate Entrance,-1.2186,36.80168,0.0857142857142857,0.6428571428571429,0.0,18.90714285714285,4279.27,4217.5,6212.200000000001,0.0,1
0101REN,6,True,2,1,Redeemed Ndenderu,-1.19238,36.74504,0.0857142857142857,0.6428571428571429,0.0,18.90714285714285,4279.27,4217.5,6212.200000000001,0.0,0
0101RIE,7,True,1,1,Limuru Diaries,-1.125841,36.642507,0.0571428571428571,0.5,0.0,20.92142857142857,3847.35,3883.0,5704.700000000003,0.0,0
0101RIH,6,True,1,1,Commissioner of Higher Education,-1.227861643,36.79806501,0.0857142857142857,0.6428571428571429,0.0,18.90714285714285,4279.27,4217.5,6212.200000000001,0.0,0
0101RJI,6,True,1,1,Ruiru Road Junction,-1.152135,36.91984,0.0857142857142857,0.6428571428571429,0.0,18.90714285714285,4279.27,4217.5,6212.200000000001,0.0,0
0101RKJ,6,True,2,1,Ruaka Junction,-1.207095981,36.78598166,0.0857142857142857,0.6428571428571429,0.0,18.90714285714285,4279.27,4217.5,6212.200000000001,0.0,0
0101RMY,6,True,2,1,Rumenye,-1.19961,36.75794,0.0857142857142857,0.6428571428571429,0.0,18.90714285714285,4279.27,4217.5,6212.200000000001,0.0,0
0101ROK,6,True,5,1,Rosslyn Road/Karura Community Chapel,-1.216499805,36.79930687,0.0857142857142857,0.6428571428571429,0.0,18.90714285714285,4279.27,4217.5,6212.200000000001,0.0,1
0101ROR,6,True,5,1,Rosslyn Road/Riviera,-1.217250824,36.80042267,0.0857142857142857,0.6428571428571429,0.0,18.90714285714285,4279.27,4217.5,6212.200000000001,0.0,1
0101RSH,6,True,1,1,Roslyn Heights,-1.223669,36.782832,0.0857142857142857,0.6428571428571429,0.0,18.90714285714285,4279.27,4217.5,6212.200000000001,0.0,0
0101RUA,6,True,1,1,Marurui,-1.210805833,36.8751812,0.0857142857142857,0.6428571428571429,0.0,18.90714285714285,4279.27,4217.5,6212.200000000001,0.0,0
0101RUD,6,True,1,1,Runda Road,-1.215523,36.815038,0.0857142857142857,0.6428571428571429,0.0,18.90714285714285,4279.27,4217.5,6212.200000000001,0.0,0
0101SDA,6,True,1,1,SDA Church,-1.223143,36.781961,0.0857142857142857,0.6428571428571429,0.0,18.90714285714285,4279.27,4217.5,6212.200000000001,0.0,0
0101SHR,6,True,5,1,Shakers/Rosslyn Gate,-1.21115,36.79024,0.0857142857142857,0.6428571428571429,0.0,18.90714285714285,4279.27,4217.5,6212.200000000001,0.0,1
0101SHT,6,True,2,1,Sacred Heart,-1.186283,36.767421,0.0857142857142857,0.6428571428571429,0.0,18.90714285714285,4279.27,4217.5,6212.200000000001,0.0,0
0101SLT,6,True,2,1,Slaughter,-1.20523,36.77754,0.0857142857142857,0.6428571428571429,0.0,18.90714285714285,4279.27,4217.5,6212.200000000001,0.0,0
0101STP,6,True,6,1,Stima Plaza,-1.27043,36.82048,0.0857142857142857,0.6428571428571429,0.0,18.90714285714285,4279.27,4217.5,6212.200000000001,0.0,1
0101TIG,7,True,1,1,Tigoni,-1.126739,36.671944,0.0571428571428571,0.5,0.0,20.92142857142857,3847.35,3883.0,5704.700000000003,0.0,0
0101VRY,6,True,2,1,Victory,-1.181719,36.762391,0.0857142857142857,0.6428571428571429,0.0,18.90714285714285,4279.27,4217.5,6212.200000000001,0.0,0
0101WBR,6,True,6,1,Wambugu Road,-1.26799,36.82127,0.0857142857142857,0.6428571428571429,0.0,18.90714285714285,4279.27,4217.5,6212.200000000001,0.0,1
0101WIA,6,True,1,1,Kwa Kuria,-1.218400365,36.774652,0.0857142857142857,0.6428571428571429,0.0,18.90714285714285,4279.27,4217.5,6212.200000000001,0.0,0
0101WID,6,True,1,1,Windsor Advice,-1.215566,36.850327,0.0857142857142857,0.6428571428571429,0.0,18.90714285714285,4279.27,4217.5,6212.200000000001,0.0,0
0101YSA,6,True,1,1,Nyari West,-1.224193937,36.78374469,0.0857142857142857,0.6428571428571429,0.0,18.90714285714285,4279.27,4217.5,6212.200000000001,0.0,0
0101ZAK,6,True,2,1,Zakawa,-1.179181,36.760914,0.0857142857142857,0.6428571428571429,0.0,18.90714285714285,4279.27,4217.5,6212.200000000001,0.0,0
0102KHJ,6,True,21,1,Koja,-1.281428,36.822532,0.0857142857142857,0.6428571428571429,0.0,18.90714285714285,4279.27,4217.5,6212.200000000001,0.0,1
0102KHJ,7,True,1,1,Koja,-1.281428,36.822532,0.0571428571428571,0.5,0.0,20.92142857142857,3847.35,3883.0,5704.700000000003,0.0,0
0103MSQ,6,True,1,1,Kwa Mosque/Highridge Mwisho,-1.25687,36.81077,0.0857142857142857,0.6428571428571429,0.0,18.90714285714285,4279.27,4217.5,6212.200000000001,0.0,0
0110/PU,6,True,1,1,UNEP/KTTC,-1.238447195,36.81041658,0.0857142857142857,0.6428571428571429,0.0,18.90714285714285,4279.27,4217.5,6212.200000000001,0.0,0
0110AAN,6,True,1,1,Oilibya/2nd Parklands Avenue,-1.264200211,36.8246913,0.0857142857142857,0.6428571428571429,0.0,18.90714285714285,4279.27,4217.5,6212.200000000001,0.0,0
0110ACG,6,True,1,1,Gachie,-1.181385845,36.7275551,0.0857142857142857,0.6428571428571429,0.0,18.90714285714285,4279.27,4217.5,6212.200000000001,0.0,0
0110AEA,6,True,1,1,Shell Banana,-1.175848246,36.75952971,0.0857142857142857,0.6428571428571429,0.0,18.90714285714285,4279.27,4217.5,6212.200000000001,0.0,0
0110AGK,6,True,4,1,Aga Khan Academy,-1.266404986,36.82319462,0.0857142857142857,0.6428571428571429,0.0,18.90714285714285,4279.27,4217.5,6212.200000000001,0.0,1
0110AGK,7,True,2,1,Aga Khan Academy,-1.266404986,36.82319462,0.0571428571428571,0.5,0.0,20.92142857142857,3847.35,3883.0,5704.700000000003,0.0,0
0110AIG,6,True,1,1,Gacharaini,-1.201715469,36.76474392,0.0857142857142857,0.6428571428571429,0.0,18.90714285714285,4279.27,4217.5,6212.200000000001,0.0,0
0110AOA,7,True,1,1,Mwambao,-1.256713003,36.82633013,0.0571428571428571,0.5,0.0,20.92142857142857,3847.35,3883.0,5704.700000000003,0.0,0
0110AOH,6,True,1,1,Mama Shop,-1.1517528,36.93119645,0.0857142857142857,0.6428571428571429,0.0,18.90714285714285,4279.27,4217.5,6212.200000000001,0.0,0
0110APS,6,True,1,1,Aga Khan Hospital Stage,-1.26198,36.8227,0.0857142857142857,0.6428571428571429,0.0,18.90714285714285,4279.27,4217.5,6212.200000000001,0.0,0
0110APT,6,True,1,1,Aga Khan Hospital Stage 2,-1.26277,36.82467,0.0857142857142857,0.6428571428571429,0.0,18.90714285714285,4279.27,4217.5,6212.200000000001,0.0,0
0110ASP,6,True,2,1,Stima Plaza,-1.270036697,36.82055533,0.0857142857142857,0.6428571428571429,0.0,18.90714285714285,4279.27,4217.5,6212.200000000001,0.0,0
0110AST,6,True,2,1,Ambassadors Stage,-1.19864,36.75634,0.0857142857142857,0.6428571428571429,0.0,18.90714285714285,4279.27,4217.5,6212.200000000001,0.0,0
0110AUK,7,True,1,1,Karura,-1.24724865,36.81577563,0.0571428571428571,0.5,0.0,20.92142857142857,3847.35,3883.0,5704.700000000003,0.0,0
0110BAA,6,True,2,1,Banana Terminus,-1.174235,36.758765,0.0857142857142857,0.6428571428571429,0.0,18.90714285714285,4279.27,4217.5,6212.200000000001,0.0,0
0110BDO,6,True,1,1,Boda,-1.210380524,36.78958386,0.0857142857142857,0.6428571428571429,0.0,18.90714285714285,4279.27,4217.5,6212.200000000001,0.0,0
0110BLV,6,True,1,1,6th Parklands Avenue/Regal House/Kobil,-1.257905424,36.82689607,0.0857142857142857,0.6428571428571429,0.0,18.90714285714285,4279.27,4217.5,6212.200000000001,0.0,0
0110BNI,6,True,1,1,Kobil banana,-1.174563825,36.75899327,0.0857142857142857,0.6428571428571429,0.0,18.90714285714285,4279.27,4217.5,6212.200000000001,0.0,0
0110BUK,6,True,1,1,Kabuku Junction Stage,-1.150767,36.668272,0.0857142857142857,0.6428571428571429,0.0,18.90714285714285,4279.27,4217.5,6212.200000000001,0.0,0
0110CEJ,6,True,1,1,Gacharage Junction,-1.20033,36.76062,0.0857142857142857,0.6428571428571429,0.0,18.90714285714285,4279.27,4217.5,6212.200000000001,0.0,0
0110COH,6,True,1,1,Gacharage Junction - Gachiraini Stage,-1.200470924,36.76059455,0.0857142857142857,0.6428571428571429,0.0,18.90714285714285,4279.27,4217.5,6212.200000000001,0.0,0
0110CUT,6,True,1,1,Karura Community Chapel,-1.215755707,36.79781556,0.0857142857142857,0.6428571428571429,0.0,18.90714285714285,4279.27,4217.5,6212.200000000001,0.0,0
0110DAS,6,True,1,1,Ridgeways Girls,-1.214993119,36.86438799,0.0857142857142857,0.6428571428571429,0.0,18.90714285714285,4279.27,4217.5,6212.200000000001,0.0,0
0110FRM,6,True,1,1,Muguku Farm,-1.17646,36.718384,0.0857142857142857,0.6428571428571429,0.0,18.90714285714285,4279.27,4217.5,6212.200000000001,0.0,0
0110FSA,6,True,1,1,Karura Forest/Belgian Embassy,-1.248370528,36.81659102,0.0857142857142857,0.6428571428571429,0.0,18.90714285714285,4279.27,4217.5,6212.200000000001,0.0,0
0110GAC,6,True,1,1,Gacharage,-1.192978352,36.74807936,0.0857142857142857,0.6428571428571429,0.0,18.90714285714285,4279.27,4217.5,6212.200000000001,0.0,0
0110GTH,6,True,2,1,Gathanga Stage/Kiambea,-1.198999,36.78444,0.0857142857142857,0.6428571428571429,0.0,18.90714285714285,4279.27,4217.5,6212.200000000001,0.0,0
0110HHH,6,True,1,1,JamhurI High,-1.272161007,36.82225585,0.0857142857142857,0.6428571428571429,0.0,18.90714285714285,4279.27,4217.5,6212.200000000001,0.0,0
0110HUN,6,True,1,1,5th parklands avenue,-1.260938644,36.82585001,0.0857142857142857,0.6428571428571429,0.0,18.90714285714285,4279.27,4217.5,6212.200000000001,0.0,0
0110IDR,6,True,1,1,City park drive,-1.257162094,36.82656348,0.0857142857142857,0.6428571428571429,0.0,18.90714285714285,4279.27,4217.5,6212.200000000001,0.0,0
0110ILU,6,True,1,1,Limuru Terminus,-1.108075708,36.64339274,0.0857142857142857,0.6428571428571429,0.0,18.90714285714285,4279.27,4217.5,6212.200000000001,0.0,0
0110IRT,6,True,7,1,Ngara,-1.274190277,36.82365865,0.0857142857142857,0.6428571428571429,0.0,18.90714285714285,4279.27,4217.5,6212.200000000001,0.0,1
0110IRT,7,True,2,1,Ngara,-1.274190277,36.82365865,0.0571428571428571,0.5,0.0,20.92142857142857,3847.35,3883.0,5704.700000000003,0.0,0
0110ISR,6,True,1,1,Ruiru Prisons,-1.151870817,36.92952543,0.0857142857142857,0.6428571428571429,0.0,18.90714285714285,4279.27,4217.5,6212.200000000001,0.0,0
0110KAU,6,True,1,1,Kianjogu Stage,-1.180979,36.727015,0.0857142857142857,0.6428571428571429,0.0,18.90714285714285,4279.27,4217.5,6212.200000000001,0.0,0
0110KGQ,6,True,1,1,Highridge/Kwa Mosque/Mwisho,-1.256852478,36.81073576,0.0857142857142857,0.6428571428571429,0.0,18.90714285714285,4279.27,4217.5,6212.200000000001,0.0,0
0110KKB,6,True,1,1,Garage,-1.222414,36.780964,0.0857142857142857,0.6428571428571429,0.0,18.90714285714285,4279.27,4217.5,6212.200000000001,0.0,0
0110KRS,6,True,1,1,Karura Stage,-1.19437,36.73198,0.0857142857142857,0.6428571428571429,0.0,18.90714285714285,4279.27,4217.5,6212.200000000001,0.0,0
0110KSL,6,True,1,1,Nish Raaj Estate/Kusi Lane,-1.25864,36.81485,0.0857142857142857,0.6428571428571429,0.0,18.90714285714285,4279.27,4217.5,6212.200000000001,0.0,0
0110LAR,7,True,1,1,Rosslyn Riviera,-1.215369433,36.79668099,0.0571428571428571,0.5,0.0,20.92142857142857,3847.35,3883.0,5704.700000000003,0.0,0
0110LCM,6,True,1,1,Decimal,-1.203015178,36.76999301,0.0857142857142857,0.6428571428571429,0.0,18.90714285714285,4279.27,4217.5,6212.200000000001,0.0,0
0110LHL,6,True,1,1,Full Gospel Church,-1.151017874,36.93746209,0.0857142857142857,0.6428571428571429,0.0,18.90714285714285,4279.27,4217.5,6212.200000000001,0.0,0
0110LIG,6,True,1,1,Kobil Gigiri,-1.239215791,36.81125343,0.0857142857142857,0.6428571428571429,0.0,18.90714285714285,4279.27,4217.5,6212.200000000001,0.0,0
0110LJA,6,True,1,1,Joyland,-1.204860538,36.77656978,0.0857142857142857,0.6428571428571429,0.0,18.90714285714285,4279.27,4217.5,6212.200000000001,0.0,0
0110MKT,6,True,1,1,Makutano,-1.159421,36.74364,0.0857142857142857,0.6428571428571429,0.0,18.90714285714285,4279.27,4217.5,6212.200000000001,0.0,0
0110MTS,6,True,3,1,Muthaiga Shopping Centre,-1.250537038,36.81984186,0.0857142857142857,0.6428571428571429,0.0,18.90714285714285,4279.27,4217.5,6212.200000000001,0.0,1
0110MTS,7,True,2,1,Muthaiga Shopping Centre,-1.250537038,36.81984186,0.0571428571428571,0.5,0.0,20.92142857142857,3847.35,3883.0,5704.700000000003,0.0,0
0110MYA,6,True,1,1,City Park Market,-1.261573166,36.8257615,0.0857142857142857,0.6428571428571429,0.0,18.90714285714285,4279.27,4217.5,6212.200000000001,0.0,0
0110NGP,6,True,1,1,Ndenderu Redeemed Gospel,-1.19222,36.74442,0.0857142857142857,0.6428571428571429,0.0,18.90714285714285,4279.27,4217.5,6212.200000000001,0.0,0
0110NKT,6,True,1,1,Nakumatt Stage,-1.26018,36.81855,0.0857142857142857,0.6428571428571429,0.0,18.90714285714285,4279.27,4217.5,6212.200000000001,0.0,0
0110NSG,6,True,2,1,Ndenderu Stage,-1.1926,36.74685,0.0857142857142857,0.6428571428571429,0.0,18.90714285714285,4279.27,4217.5,6212.200000000001,0.0,0
0110OLB,6,True,1,1,Blue Kiosk,-1.154766083,36.67294264,0.0857142857142857,0.6428571428571429,0.0,18.90714285714285,4279.27,4217.5,6212.200000000001,0.0,0
0110OVL,7,True,1,1,3rd Parklands Avenue/Aga Kan Hospital Junction,-1.2632415,36.82506412,0.0571428571428571,0.5,0.0,20.92142857142857,3847.35,3883.0,5704.700000000003,0.0,0
0110PBS,6,True,1,1,Bypass,-1.204483509,36.78551495,0.0857142857142857,0.6428571428571429,0.0,18.90714285714285,4279.27,4217.5,6212.200000000001,0.0,0
0110PMA,6,True,1,1,Stima Plaza,-1.269993782,36.82060361,0.0857142857142857,0.6428571428571429,0.0,18.90714285714285,4279.27,4217.5,6212.200000000001,0.0,0
0110PMT,6,True,2,1,Pm Flats,-1.20375,36.77257,0.0857142857142857,0.6428571428571429,0.0,18.90714285714285,4279.27,4217.5,6212.200000000001,0.0,0
0110R/B,6,True,2,1,Belgian Embassy/Karura,-1.246905327,36.81568444,0.0857142857142857,0.6428571428571429,0.0,18.90714285714285,4279.27,4217.5,6212.200000000001,0.0,0
0110REU,6,True,1,1,Rwenu,-1.194505692,36.73557758,0.0857142857142857,0.6428571428571429,0.0,18.90714285714285,4279.27,4217.5,6212.200000000001,0.0,0
0110REV,6,True,1,1,Two Rivers,-1.212894917,36.79242432,0.0857142857142857,0.6428571428571429,0.0,18.90714285714285,4279.27,4217.5,6212.200000000001,0.0,0
0110REV,7,True,1,1,Two Rivers,-1.212894917,36.79242432,0.0571428571428571,0.5,0.0,20.92142857142857,3847.35,3883.0,5704.700000000003,0.0,0
0110RID,6,True,1,1,Windsor Advice,-1.215743423,36.84993625,0.0857142857142857,0.6428571428571429,0.0,18.90714285714285,4279.27,4217.5,6212.200000000001,0.0,0
0110RIS,6,True,1,1,Two Rivers,-1.211571425,36.79079086,0.0857142857142857,0.6428571428571429,0.0,18.90714285714285,4279.27,4217.5,6212.200000000001,0.0,0
0110RNO,6,True,1,1,Rossyln,-1.233918071,36.80209637,0.0857142857142857,0.6428571428571429,0.0,18.90714285714285,4279.27,4217.5,6212.200000000001,0.0,0
0110ROA,6,True,1,1,Wambugu Road,-1.268078685,36.82123929,0.0857142857142857,0.6428571428571429,0.0,18.90714285714285,4279.27,4217.5,6212.200000000001,0.0,0
0110ROS,6,True,1,1,Rosslyn Total,-1.210405827,36.78973138,0.0857142857142857,0.6428571428571429,0.0,18.90714285714285,4279.27,4217.5,6212.200000000001,0.0,0
0110RRS,6,True,2,1,Two Rivers,-1.214472055,36.79485977,0.0857142857142857,0.6428571428571429,0.0,18.90714285714285,4279.27,4217.5,6212.200000000001,0.0,0
0110RTC,7,True,1,1,Ruaka Quickmart,-1.206689805,36.78235799,0.0571428571428571,0.5,0.0,20.92142857142857,3847.35,3883.0,5704.700000000003,0.0,0
0110RTU,6,True,1,1,Kobil/Regal house/6th Parklands ave,-1.258020401,36.82704628,0.0857142857142857,0.6428571428571429,0.0,18.90714285714285,4279.27,4217.5,6212.200000000001,0.0,0
0110SAI,6,True,1,1,Stima Plaza,-1.272611618,36.82100058,0.0857142857142857,0.6428571428571429,0.0,18.90714285714285,4279.27,4217.5,6212.200000000001,0.0,0
0110SIH,6,True,1,1,Gasolina/Gichagi Mwisho,-1.219559079,36.76671803,0.0857142857142857,0.6428571428571429,0.0,18.90714285714285,4279.27,4217.5,6212.200000000001,0.0,0
0110SOI,6,True,1,1,Mimosa,-1.212091684,36.8047142,0.0857142857142857,0.6428571428571429,0.0,18.90714285714285,4279.27,4217.5,6212.200000000001,0.0,0
0110SPU,6,True,1,1,St. Paul's University Limuru,-1.147694,36.665794,0.0857142857142857,0.6428571428571429,0.0,18.90714285714285,4279.27,4217.5,6212.200000000001,0.0,0
0110SRT,6,True,1,1,Marurui Police Post,-1.214639872,36.86785609,0.0857142857142857,0.6428571428571429,0.0,18.90714285714285,4279.27,4217.5,6212.200000000001,0.0,0
0110SSA,6,True,1,1,Canadian embassy,-1.241283417,36.81334019,0.0857142857142857,0.6428571428571429,0.0,18.90714285714285,4279.27,4217.5,6212.200000000001,0.0,0
0110TAA,6,True,1,1,Stima Plaza,-1.269752383,36.82057947,0.0857142857142857,0.6428571428571429,0.0,18.90714285714285,4279.27,4217.5,6212.200000000001,0.0,0
0110TOH,6,True,1,1,Githogoro,-1.216533512,36.82539135,0.0857142857142857,0.6428571428571429,0.0,18.90714285714285,4279.27,4217.5,6212.200000000001,0.0,0
0110TPA,6,True,4,1,3rd Parklands Avenue/Aga Kan Hospital Junction,-1.263229251,36.82507753,0.0857142857142857,0.6428571428571429,0.0,18.90714285714285,4279.27,4217.5,6212.200000000001,0.0,1
0110TPA,7,True,1,1,3rd Parklands Avenue/Aga Kan Hospital Junction,-1.263229251,36.82507753,0.0571428571428571,0.5,0.0,20.92142857142857,3847.35,3883.0,5704.700000000003,0.0,0
0110TUQ,6,True,1,1,Equity,-1.205160946,36.77773386,0.0857142857142857,0.6428571428571429,0.0,18.90714285714285,4279.27,4217.5,6212.200000000001,0.0,0
0110TVM,6,True,2,1,Traveller's View Muchatha,-1.188491,36.771639,0.0857142857142857,0.6428571428571429,0.0,18.90714285714285,4279.27,4217.5,6212.200000000001,0.0,0
0110UMI,6,True,1,1,Mulima,-1.220399737,36.76975965,0.0857142857142857,0.6428571428571429,0.0,18.90714285714285,4279.27,4217.5,6212.200000000001,0.0,0
0110UMK,6,True,1,1,Mkulima supermarket,-1.175078809,36.75925076,0.0857142857142857,0.6428571428571429,0.0,18.90714285714285,4279.27,4217.5,6212.200000000001,0.0,0
0110UNA,6,True,3,1,UNEP/KTTC,-1.238032579,36.80994987,0.0857142857142857,0.6428571428571429,0.0,18.90714285714285,4279.27,4217.5,6212.200000000001,0.0,1
0110UNA,7,True,2,1,UNEP/KTTC,-1.238032579,36.80994987,0.0571428571428571,0.5,0.0,20.92142857142857,3847.35,3883.0,5704.700000000003,0.0,0
0110VKS,6,True,1,1,2nd Parklands Avenue,-1.264834642,36.82441235,0.0857142857142857,0.6428571428571429,0.0,18.90714285714285,4279.27,4217.5,6212.200000000001,0.0,0
0110VMT,6,True,3,1,Village Market,-1.23006,36.80399,0.0857142857142857,0.6428571428571429,0.0,18.90714285714285,4279.27,4217.5,6212.200000000001,0.0,1
0110VMT,7,True,2,1,Village Market,-1.23006,36.80399,0.0571428571428571,0.5,0.0,20.92142857142857,3847.35,3883.0,5704.700000000003,0.0,0
0110WAM,6,True,2,1,Kwa Jeki,-1.194574,36.779445,0.0857142857142857,0.6428571428571429,0.0,18.90714285714285,4279.27,4217.5,6212.200000000001,0.0,0
0110WOJ,6,True,1,1,Maziwa Junction,-1.193992227,36.90453798,0.0857142857142857,0.6428571428571429,0.0,18.90714285714285,4279.27,4217.5,6212.200000000001,0.0,0
0110WRS,6,True,1,1,Two Rivers,-1.208241641,36.79728448,0.0857142857142857,0.6428571428571429,0.0,18.90714285714285,4279.27,4217.5,6212.200000000001,0.0,0
0110YIL,6,True,2,1,OiLibya/2nd Parklands Avenue,-1.26424849,36.82468057,0.0857142857142857,0.6428571428571429,0.0,18.90714285714285,4279.27,4217.5,6212.200000000001,0.0,0
0110YSP,6,True,1,1,City Park/5th Parklands Avenue,-1.261085039,36.82602704,0.0857142857142857,0.6428571428571429,0.0,18.90714285714285,4279.27,4217.5,6212.200000000001,0.0,0
0111.OJ,6,True,1,1,O.J.,-1.153206557,36.92035228,0.0857142857142857,0.6428571428571429,0.0,18.90714285714285,4279.27,4217.5,6212.200000000001,0.0,0
0111.UK,6,True,1,1,K.U.,-1.174814433,36.9143039,0.0857142857142857,0.6428571428571429,0.0,18.90714285714285,4279.27,4217.5,6212.200000000001,0.0,0
01114IA,6,True,1,1,44 Githurai,-1.19544062,36.90279722,0.0857142857142857,0.6428571428571429,0.0,18.90714285714285,4279.27,4217.5,6212.200000000001,0.0,0
0111A26,6,True,1,1,Lane 26,-1.202558398,36.76809669,0.0857142857142857,0.6428571428571429,0.0,18.90714285714285,4279.27,4217.5,6212.200000000001,0.0,0
0111AAR,6,True,1,1,Ruaka,-1.207579493,36.78627133,0.0857142857142857,0.6428571428571429,0.0,18.90714285714285,4279.27,4217.5,6212.200000000001,0.0,0
0111ACP,6,True,1,1,Agha khan hospital junction/ 3rd parklands ave,-1.261894941,36.82537794,0.0857142857142857,0.6428571428571429,0.0,18.90714285714285,4279.27,4217.5,6212.200000000001,0.0,0
0111AES,6,True,1,1,Rosslyn Valley,-1.223200679,36.80257916,0.0857142857142857,0.6428571428571429,0.0,18.90714285714285,4279.27,4217.5,6212.200000000001,0.0,0
0111AIT,6,True,1,1,Muthaiga Mini Market,-1.250233166,36.82078838,0.0857142857142857,0.6428571428571429,0.0,18.90714285714285,4279.27,4217.5,6212.200000000001,0.0,0
0111AKA,7,True,1,1,Kwa Nyaga,-1.168398589,36.69651657,0.0571428571428571,0.5,0.0,20.92142857142857,3847.35,3883.0,5704.700000000003,0.0,0
0111AKS,6,True,1,1,Aga Khan Hospital Stage,-1.26237,36.82369,0.0857142857142857,0.6428571428571429,0.0,18.90714285714285,4279.27,4217.5,6212.200000000001,0.0,0
0111ALA,6,True,1,1,Sahala,-1.20683468,36.79277837,0.0857142857142857,0.6428571428571429,0.0,18.90714285714285,4279.27,4217.5,6212.200000000001,0.0,0
0111AMB,6,True,2,1,Ambassadors Stage,-1.19859,36.75619,0.0857142857142857,0.6428571428571429,0.0,18.90714285714285,4279.27,4217.5,6212.200000000001,0.0,0
0111AMK,7,True,1,1,Kwa Mbao,-1.170485347,36.70516402,0.0571428571428571,0.5,0.0,20.92142857142857,3847.35,3883.0,5704.700000000003,0.0,0
0111ARD,6,True,1,1,Kwa Daktari,-1.184670389,36.73256814,0.0857142857142857,0.6428571428571429,0.0,18.90714285714285,4279.27,4217.5,6212.200000000001,0.0,0
0111ATA,6,True,1,1,Total City Park,-1.259304017,36.82673782,0.0857142857142857,0.6428571428571429,0.0,18.90714285714285,4279.27,4217.5,6212.200000000001,0.0,0
0111AWM,6,True,1,1,Maziwa,-1.193209022,36.90509319,0.0857142857142857,0.6428571428571429,0.0,18.90714285714285,4279.27,4217.5,6212.200000000001,0.0,0
0111AXM,6,True,1,1,Maxx,-1.181895465,36.72843486,0.0857142857142857,0.6428571428571429,0.0,18.90714285714285,4279.27,4217.5,6212.200000000001,0.0,0
0111AYS,6,True,1,1,Gitambaya Police Post,-1.149767965,36.94896609,0.0857142857142857,0.6428571428571429,0.0,18.90714285714285,4279.27,4217.5,6212.200000000001,0.0,0
0111BAA,6,True,1,1,Banana Terminus,-1.174015,36.75884,0.0857142857142857,0.6428571428571429,0.0,18.90714285714285,4279.27,4217.5,6212.200000000001,0.0,0
0111BAG,6,True,1,1,ACK Thibigwa,-1.181042522,36.76208586,0.0857142857142857,0.6428571428571429,0.0,18.90714285714285,4279.27,4217.5,6212.200000000001,0.0,0
0111BEK,6,True,5,1,Belgian Embassy/Karura,-1.24701,36.8156,0.0857142857142857,0.6428571428571429,0.0,18.90714285714285,4279.27,4217.5,6212.200000000001,0.0,1
0111BPY,6,True,2,1,Bypass,-1.205770969,36.77934051,0.0857142857142857,0.6428571428571429,0.0,18.90714285714285,4279.27,4217.5,6212.200000000001,0.0,0
0111BUK,7,True,1,1,Kabuku Stage,-1.154742,36.674973,0.0571428571428571,0.5,0.0,20.92142857142857,3847.35,3883.0,5704.700000000003,0.0,0
0111CEP,6,True,1,1,PCEA,-1.189026296,36.7375356,0.0857142857142857,0.6428571428571429,0.0,18.90714285714285,4279.27,4217.5,6212.200000000001,0.0,0
0111CNT,6,True,1,1,Container,-1.197221607,36.89955175,0.0857142857142857,0.6428571428571429,0.0,18.90714285714285,4279.27,4217.5,6212.200000000001,0.0,0
0111CRA,6,True,1,1,Car Wash,-1.21710754,36.77706063,0.0857142857142857,0.6428571428571429,0.0,18.90714285714285,4279.27,4217.5,6212.200000000001,0.0,0
0111EDH,7,True,1,1,The Dam,-1.170045465,36.70123726,0.0571428571428571,0.5,0.0,20.92142857142857,3847.35,3883.0,5704.700000000003,0.0,0
0111EED,6,True,1,1,Ndenderu,-1.192216605,36.74356252,0.0857142857142857,0.6428571428571429,0.0,18.90714285714285,4279.27,4217.5,6212.200000000001,0.0,0
0111ENP,6,True,1,1,Dispenser,-1.190345943,36.73904836,0.0857142857142857,0.6428571428571429,0.0,18.90714285714285,4279.27,4217.5,6212.200000000001,0.0,0
0111EYE,6,True,1,1,Membley,-1.156393021,36.92510515,0.0857142857142857,0.6428571428571429,0.0,18.90714285714285,4279.27,4217.5,6212.200000000001,0.0,0
0111FRM,7,True,1,1,Muguku Farm/GD,-1.176554,36.718575,0.0571428571428571,0.5,0.0,20.92142857142857,3847.35,3883.0,5704.700000000003,0.0,0
0111GIE,7,True,1,1,Sovereign,-1.16958949,36.70015901,0.0571428571428571,0.5,0.0,20.92142857142857,3847.35,3883.0,5704.700000000003,0.0,0
0111GIM,6,True,1,1,Muthaiga Mini Market,-1.2501508,36.82074845,0.0857142857142857,0.6428571428571429,0.0,18.90714285714285,4279.27,4217.5,6212.200000000001,0.0,0
0111HDE,6,True,1,1,Shade,-1.193895668,36.74959213,0.0857142857142857,0.6428571428571429,0.0,18.90714285714285,4279.27,4217.5,6212.200000000001,0.0,0
0111HRT,7,True,1,1,Mothero,-1.166445136,36.69361711,0.0571428571428571,0.5,0.0,20.92142857142857,3847.35,3883.0,5704.700000000003,0.0,0
0111IAC,7,True,1,1,Pa Machiri,-1.172893971,36.71205729,0.0571428571428571,0.5,0.0,20.92142857142857,3847.35,3883.0,5704.700000000003,0.0,0
0111ICT,6,True,2,1,Quickmart,-1.206678271,36.78331017,0.0857142857142857,0.6428571428571429,0.0,18.90714285714285,4279.27,4217.5,6212.200000000001,0.0,0
0111IGA,6,True,1,1,Gacharaini,-1.201393604,36.76348329,0.0857142857142857,0.6428571428571429,0.0,18.90714285714285,4279.27,4217.5,6212.200000000001,0.0,0
0111IGK,6,True,1,1,Kobil Gigiri,-1.23922956,36.81144118,0.0857142857142857,0.6428571428571429,0.0,18.90714285714285,4279.27,4217.5,6212.200000000001,0.0,0
0111IME,6,True,1,1,Milele,-1.201035708,36.76265985,0.0857142857142857,0.6428571428571429,0.0,18.90714285714285,4279.27,4217.5,6212.200000000001,0.0,0
0111ISE,7,True,1,1,Site,-1.178182483,36.72254205,0.0571428571428571,0.5,0.0,20.92142857142857,3847.35,3883.0,5704.700000000003,0.0,0
0111JEK,6,True,2,1,Kwa Njoki,-1.194099,36.778615,0.0857142857142857,0.6428571428571429,0.0,18.90714285714285,4279.27,4217.5,6212.200000000001,0.0,0
0111JM,6,True,1,1,JM,-1.188322037,36.90638065,0.0857142857142857,0.6428571428571429,0.0,18.90714285714285,4279.27,4217.5,6212.200000000001,0.0,0
0111KAN,6,True,1,1,Aga Khan,-1.262254447,36.82536989,0.0857142857142857,0.6428571428571429,0.0,18.90714285714285,4279.27,4217.5,6212.200000000001,0.0,0
0111KAU,7,True,1,1,Kianjogu Stage,-1.181209,36.727208,0.0571428571428571,0.5,0.0,20.92142857142857,3847.35,3883.0,5704.700000000003,0.0,0
0111KEA,6,True,2,1,Kiambea,-1.198614,36.784122,0.0857142857142857,0.6428571428571429,0.0,18.90714285714285,4279.27,4217.5,6212.200000000001,0.0,0
0111KIV,6,True,2,1,Kibutu Stage/Bread of Life,-1.188314,36.771234,0.0857142857142857,0.6428571428571429,0.0,18.90714285714285,4279.27,4217.5,6212.200000000001,0.0,0
0111KNA,6,True,1,1,Kona,-1.220945,36.778584,0.0857142857142857,0.6428571428571429,0.0,18.90714285714285,4279.27,4217.5,6212.200000000001,0.0,0
0111KNE,6,True,1,1,Aga Khan Entrance,-1.261342496,36.82584196,0.0857142857142857,0.6428571428571429,0.0,18.90714285714285,4279.27,4217.5,6212.200000000001,0.0,0
0111KOG,6,True,1,1,Kobil Gigiri,-1.239407301,36.81168795,0.0857142857142857,0.6428571428571429,0.0,18.90714285714285,4279.27,4217.5,6212.200000000001,0.0,0
0111KRU,6,True,5,1,Karura/Runda,-1.22082,36.80136,0.0857142857142857,0.6428571428571429,0.0,18.90714285714285,4279.27,4217.5,6212.200000000001,0.0,1
0111LIS,6,True,1,1,Emsoil,-1.195987791,36.75258547,0.0857142857142857,0.6428571428571429,0.0,18.90714285714285,4279.27,4217.5,6212.200000000001,0.0,0
0111LON,6,True,2,1,Joyland,-1.204928756,36.77661002,0.0857142857142857,0.6428571428571429,0.0,18.90714285714285,4279.27,4217.5,6212.200000000001,0.0,0
0111LSO,6,True,1,1,Chantilly School,-1.180808008,36.76191151,0.0857142857142857,0.6428571428571429,0.0,18.90714285714285,4279.27,4217.5,6212.200000000001,0.0,0
0111MAO,6,True,1,1,Mwambao,-1.256381929,36.82609141,0.0857142857142857,0.6428571428571429,0.0,18.90714285714285,4279.27,4217.5,6212.200000000001,0.0,0
0111MCM,6,True,2,1,Mirai Court/Mifereji,-1.20322,36.77046,0.0857142857142857,0.6428571428571429,0.0,18.90714285714285,4279.27,4217.5,6212.200000000001,0.0,0
0111MIF,6,True,1,1,Mfereji,-1.203888774,36.77303195,0.0857142857142857,0.6428571428571429,0.0,18.90714285714285,4279.27,4217.5,6212.200000000001,0.0,0
0111MKT,6,True,1,1,Makutano,-1.159354,36.743484,0.0857142857142857,0.6428571428571429,0.0,18.90714285714285,4279.27,4217.5,6212.200000000001,0.0,0
0111MME,6,True,1,1,Muthaiga Mini Market,-1.250145435,36.820786,0.0857142857142857,0.6428571428571429,0.0,18.90714285714285,4279.27,4217.5,6212.200000000001,0.0,0
0111MRE,6,True,1,1,Muthaiga Mini Market,-1.25019908,36.82072967,0.0857142857142857,0.6428571428571429,0.0,18.90714285714285,4279.27,4217.5,6212.200000000001,0.0,0
0111NDS,6,True,2,1,Ndenderu Stage/Shell,-1.19303,36.74802,0.0857142857142857,0.6428571428571429,0.0,18.90714285714285,4279.27,4217.5,6212.200000000001,0.0,0
0111NKM,6,True,1,1,Nakumatt/Post Office,-1.26012,36.81825,0.0857142857142857,0.6428571428571429,0.0,18.90714285714285,4279.27,4217.5,6212.200000000001,0.0,0
0111NMO,6,True,1,1,Ngomongo,-1.200252503,36.89471304,0.0857142857142857,0.6428571428571429,0.0,18.90714285714285,4279.27,4217.5,6212.200000000001,0.0,0
0111NOI,6,True,1,1,Kia Njogu,-1.183815926,36.73128337,0.0857142857142857,0.6428571428571429,0.0,18.90714285714285,4279.27,4217.5,6212.200000000001,0.0,0
0111NTA,6,True,1,1,Muthaiga Mini Market,-1.250145435,36.82079136,0.0857142857142857,0.6428571428571429,0.0,18.90714285714285,4279.27,4217.5,6212.200000000001,0.0,0
0111OJC,6,True,1,1,Jowac,-1.193359226,36.74874991,0.0857142857142857,0.6428571428571429,0.0,18.90714285714285,4279.27,4217.5,6212.200000000001,0.0,0
0111OLB,6,True,6,1,OiLibya/2nd Parklands Avenue,-1.26469,36.82432,0.0857142857142857,0.6428571428571429,0.0,18.90714285714285,4279.27,4217.5,6212.200000000001,0.0,1
0111OLS,6,True,1,1,Total Rosslyn,-1.21055907,36.78952754,0.0857142857142857,0.6428571428571429,0.0,18.90714285714285,4279.27,4217.5,6212.200000000001,0.0,0
0111RAU,6,True,1,1,Quarry,-1.207043856,36.88213885,0.0857142857142857,0.6428571428571429,0.0,18.90714285714285,4279.27,4217.5,6212.200000000001,0.0,0
0111RHK,6,True,5,1,6th Parklands Avenue/Regal House/Kobil,-1.25777,36.82691,0.0857142857142857,0.6428571428571429,0.0,18.90714285714285,4279.27,4217.5,6212.200000000001,0.0,1
0111RHR,6,True,5,1,Redhill Road/Polish Embassy,-1.234529614,36.80346429,0.0857142857142857,0.6428571428571429,0.0,18.90714285714285,4279.27,4217.5,6212.200000000001,0.0,1
0111RNE,6,True,1,1,Rwenu,-1.193967312,36.74329042,0.0857142857142857,0.6428571428571429,0.0,18.90714285714285,4279.27,4217.5,6212.200000000001,0.0,0
0111RNI,6,True,1,1,Container,-1.204575419,36.77539229,0.0857142857142857,0.6428571428571429,0.0,18.90714285714285,4279.27,4217.5,6212.200000000001,0.0,0
0111ROT,6,True,1,1,Two Rivers,-1.214563251,36.79482222,0.0857142857142857,0.6428571428571429,0.0,18.90714285714285,4279.27,4217.5,6212.200000000001,0.0,0
0111RPS,6,True,1,1,Ruiru Prisons,-1.151827,36.929292,0.0857142857142857,0.6428571428571429,0.0,18.90714285714285,4279.27,4217.5,6212.200000000001,0.0,0
0111RRY,7,True,1,1,Fairy Flowers,-1.164890259,36.69146866,0.0571428571428571,0.5,0.0,20.92142857142857,3847.35,3883.0,5704.700000000003,0.0,0
0111RST,6,True,2,1,Ruaka Stage/Tuskys,-1.207146,36.785877,0.0857142857142857,0.6428571428571429,0.0,18.90714285714285,4279.27,4217.5,6212.200000000001,0.0,0
0111SAR,6,True,1,1,Carwash,-1.20097053,36.78517699,0.0857142857142857,0.6428571428571429,0.0,18.90714285714285,4279.27,4217.5,6212.200000000001,0.0,0
0111SNH,6,True,1,1,Shell Banana,-1.175822139,36.75949216,0.0857142857142857,0.6428571428571429,0.0,18.90714285714285,4279.27,4217.5,6212.200000000001,0.0,0
0111SPS,6,True,5,1,Stima Plaza Stage,-1.2696,36.8204,0.0857142857142857,0.6428571428571429,0.0,18.90714285714285,4279.27,4217.5,6212.200000000001,0.0,1
0111SPU,7,True,1,1,St. Paul's University Limuru,-1.148257,36.666204,0.0571428571428571,0.5,0.0,20.92142857142857,3847.35,3883.0,5704.700000000003,0.0,0
0111TNN,6,True,1,1,Aga Khan Entrance,-1.26143825,36.82573199,0.0857142857142857,0.6428571428571429,0.0,18.90714285714285,4279.27,4217.5,6212.200000000001,0.0,0
0111TOE,6,True,1,1,Two Rivers,-1.214559316,36.79499388,0.0857142857142857,0.6428571428571429,0.0,18.90714285714285,4279.27,4217.5,6212.200000000001,0.0,0
0111TRI,6,True,1,1,Little Servant,-1.186605424,36.76822275,0.0857142857142857,0.6428571428571429,0.0,18.90714285714285,4279.27,4217.5,6212.200000000001,0.0,0
0111TRV,6,True,1,1,Two Rivers,-1.214520335,36.79460764,0.0857142857142857,0.6428571428571429,0.0,18.90714285714285,4279.27,4217.5,6212.200000000001,0.0,0
0111TUN,6,True,6,1,UNEP/Gigiri/KTTC,-1.238681674,36.81054533,0.0857142857142857,0.6428571428571429,0.0,18.90714285714285,4279.27,4217.5,6212.200000000001,0.0,1
0111TVI,6,True,1,1,Kwa Viti,-1.186836094,36.73504382,0.0857142857142857,0.6428571428571429,0.0,18.90714285714285,4279.27,4217.5,6212.200000000001,0.0,0
0111UKG,6,True,1,1,Kwa Njogu,-1.192592114,36.74655586,0.0857142857142857,0.6428571428571429,0.0,18.90714285714285,4279.27,4217.5,6212.200000000001,0.0,0
0111USA,7,True,1,1,Kwa Sukuma,-1.178994834,36.72388852,0.0571428571428571,0.5,0.0,20.92142857142857,3847.35,3883.0,5704.700000000003,0.0,0
0111VMA,6,True,5,1,Village Market,-1.22876,36.80443,0.0857142857142857,0.6428571428571429,0.0,18.90714285714285,4279.27,4217.5,6212.200000000001,0.0,1
0111VWS,6,True,1,1,Two Rivers,-1.208490729,36.79807305,0.0857142857142857,0.6428571428571429,0.0,18.90714285714285,4279.27,4217.5,6212.200000000001,0.0,0
0111WNA,6,True,1,1,Kwa Kiwanja,-1.170839399,36.91703171,0.0857142857142857,0.6428571428571429,0.0,18.90714285714285,4279.27,4217.5,6212.200000000001,0.0,0
0111WRB,7,True,1,1,Kwa Bendera,-1.16908443,36.69846654,0.0571428571428571,0.5,0.0,20.92142857142857,3847.35,3883.0,5704.700000000003,0.0,0
0111YSB,6,True,1,1,Bypass,-1.204768538,36.7854774,0.0857142857142857,0.6428571428571429,0.0,18.90714285714285,4279.27,4217.5,6212.200000000001,0.0,0
0112LKT,6,True,1,1,Koja,-1.28127,36.822572,0.0857142857142857,0.6428571428571429,0.0,18.90714285714285,4279.27,4217.5,6212.200000000001,0.0,0
0112LKT,7,True,1,1,Koja,-1.28127,36.822572,0.0571428571428571,0.5,0.0,20.92142857142857,3847.35,3883.0,5704.700000000003,0.0,0
0112POL,6,True,2,1,Junction/Poland Embassy,-1.234835,36.803782,0.0857142857142857,0.6428571428571429,0.0,18.90714285714285,4279.27,4217.5,6212.200000000001,0.0,0
0113BAA,6,True,1,1,Banana Terminus,-1.17383,36.758605,0.0857142857142857,0.6428571428571429,0.0,18.90714285714285,4279.27,4217.5,6212.200000000001,0.0,0
0113GCH,6,True,1,1,Gasolina/Gichagi Mwisho,-1.219641,36.766688,0.0857142857142857,0.6428571428571429,0.0,18.90714285714285,4279.27,4217.5,6212.200000000001,0.0,0
0113KAR,6,True,1,1,Karura Mwisho,-1.19435,36.73204,0.0857142857142857,0.6428571428571429,0.0,18.90714285714285,4279.27,4217.5,6212.200000000001,0.0,0
0113LMD,6,True,1,1,Limuru Terminus,-1.108043,36.643534,0.0857142857142857,0.6428571428571429,0.0,18.90714285714285,4279.27,4217.5,6212.200000000001,0.0,0
0113LMD,7,True,2,1,Limuru Terminus,-1.108043,36.643534,0.0571428571428571,0.5,0.0,20.92142857142857,3847.35,3883.0,5704.700000000003,0.0,0
0113RST,6,True,1,1,Ruaka Stage,-1.20717,36.78571,0.0857142857142857,0.6428571428571429,0.0,18.90714285714285,4279.27,4217.5,6212.200000000001,0.0,0
02002IE,6,True,1,1,Riverside 2,-1.249605149,36.87796533,0.0857142857142857,0.6428571428571429,0.0,18.90714285714285,4279.27,4217.5,6212.200000000001,0.0,0
0200AAK,6,True,1,1,Kwa Wachina,-1.222993612,36.90709734,0.0857142857142857,0.6428571428571429,0.0,18.90714285714285,4279.27,4217.5,6212.200000000001,0.0,0
0200ACM,6,True,1,1,Mwisho wa Chuma,-1.163516968,36.95318073,0.0857142857142857,0.6428571428571429,0.0,18.90714285714285,4279.27,4217.5,6212.200000000001,0.0,0
0200AKN,6,True,1,1,Guru Nanak,-1.270181537,36.83269501,0.0857142857142857,0.6428571428571429,0.0,18.90714285714285,4279.27,4217.5,6212.200000000001,0.0,0
0200AKO,6,True,1,1,Mpaka road,-1.264947295,36.80466485,0.0857142857142857,0.6428571428571429,0.0,18.90714285714285,4279.27,4217.5,6212.200000000001,0.0,0
0200APZ,6,True,1,1,Stima Plaza,-1.269631863,36.82072163,0.0857142857142857,0.6428571428571429,0.0,18.90714285714285,4279.27,4217.5,6212.200000000001,0.0,0
0200AVS,6,True,1,1,Naivas,-1.247291565,36.87247753,0.0857142857142857,0.6428571428571429,0.0,18.90714285714285,4279.27,4217.5,6212.200000000001,0.0,0
0200BBC,6,True,1,1,Baba Dogo Catho,-1.244169474,36.88507318,0.0857142857142857,0.6428571428571429,0.0,18.90714285714285,4279.27,4217.5,6212.200000000001,0.0,0
0200BDJ,6,True,5,1,Baba Dogo Junction/Dawa,-1.247259378,36.87438726,0.0857142857142857,0.6428571428571429,0.0,18.90714285714285,4279.27,4217.5,6212.200000000001,0.0,1
0200BER,6,True,2,1,Redeemed Ndumberi,-1.152985096,36.80867314,0.0857142857142857,0.6428571428571429,0.0,18.90714285714285,4279.27,4217.5,6212.200000000001,0.0,0
0200BLN,6,True,3,1,Balkan Sec School,-1.21242,36.83392,0.0857142857142857,0.6428571428571429,0.0,18.90714285714285,4279.27,4217.5,6212.200000000001,0.0,1
0200BLN,7,True,1,1,Balkan Sec School,-1.21242,36.83392,0.0571428571428571,0.5,0.0,20.92142857142857,3847.35,3883.0,5704.700000000003,0.0,0
0200BUL,6,True,2,1,Bull and Bush,-1.217508,36.897464,0.0857142857142857,0.6428571428571429,0.0,18.90714285714285,4279.27,4217.5,6212.200000000001,0.0,0
0200BWD,6,True,3,1,Kasarini/Paradise Lost,-1.205964088,36.83213711,0.0857142857142857,0.6428571428571429,0.0,18.90714285714285,4279.27,4217.5,6212.200000000001,0.0,1
0200BWD,7,True,1,1,Kasarini/Paradise Lost,-1.205964088,36.83213711,0.0571428571428571,0.5,0.0,20.92142857142857,3847.35,3883.0,5704.700000000003,0.0,0
0200CRN,6,True,3,1,Stima,-1.224013,36.908204,0.0857142857142857,0.6428571428571429,0.0,18.90714285714285,4279.27,4217.5,6212.200000000001,0.0,1
0200DAU,6,True,1,1,Mwandus,-1.161258459,36.82121515,0.0857142857142857,0.6428571428571429,0.0,18.90714285714285,4279.27,4217.5,6212.200000000001,0.0,0
0200DBR,6,True,1,1,Nduberi Factory,-1.140917,36.805701,0.0857142857142857,0.6428571428571429,0.0,18.90714285714285,4279.27,4217.5,6212.200000000001,0.0,0
0200DEC,6,True,1,1,Deliverance Church,-1.241361,36.894047,0.0857142857142857,0.6428571428571429,0.0,18.90714285714285,4279.27,4217.5,6212.200000000001,0.0,0
0200DMD,6,True,3,1,Diamond Flats,-1.20399,36.83301,0.0857142857142857,0.6428571428571429,0.0,18.90714285714285,4279.27,4217.5,6212.200000000001,0.0,1
0200DRU,6,True,1,1,Muslim Road,-1.27554059,36.83127344,0.0857142857142857,0.6428571428571429,0.0,18.90714285714285,4279.27,4217.5,6212.200000000001,0.0,0
0200EAC,6,True,1,1,Cinema,-1.252898902,36.89722359,0.0857142857142857,0.6428571428571429,0.0,18.90714285714285,4279.27,4217.5,6212.200000000001,0.0,0
0200EBR,6,True,1,1,Roundabout,-1.15516305,36.92666352,0.0857142857142857,0.6428571428571429,0.0,18.90714285714285,4279.27,4217.5,6212.200000000001,0.0,0
0200EEE,7,True,1,1,Redeemed Ngemwa,-1.117368221,36.8161726,0.0571428571428571,0.5,0.0,20.92142857142857,3847.35,3883.0,5704.700000000003,0.0,0
0200EIE,6,True,1,1,Ridgeviews,-1.223405331,36.83767051,0.0857142857142857,0.6428571428571429,0.0,18.90714285714285,4279.27,4217.5,6212.200000000001,0.0,0
0200EII,6,True,1,1,Regional Centre/ICIPE,-1.220014929,36.8940146,0.0857142857142857,0.6428571428571429,0.0,18.90714285714285,4279.27,4217.5,6212.200000000001,0.0,0
0200ELH,6,True,1,1,Shell,-1.267559766,36.83087111,0.0857142857142857,0.6428571428571429,0.0,18.90714285714285,4279.27,4217.5,6212.200000000001,0.0,0
0200EMF,6,True,1,1,KEMREF,-1.241982311,36.8932566,0.0857142857142857,0.6428571428571429,0.0,18.90714285714285,4279.27,4217.5,6212.200000000001,0.0,0
0200EUT,6,True,1,1,Equity,-1.258005023,36.87877536,0.0857142857142857,0.6428571428571429,0.0,18.90714285714285,4279.27,4217.5,6212.200000000001,0.0,0
0200FHA,6,True,1,1,Faith Home Academy,-1.25305,36.878651,0.0857142857142857,0.6428571428571429,0.0,18.90714285714285,4279.27,4217.5,6212.200000000001,0.0,0
0200FRS,6,True,3,1,St. Francis,-1.226196,36.916057,0.0857142857142857,0.6428571428571429,0.0,18.90714285714285,4279.27,4217.5,6212.200000000001,0.0,1
0200GEG,6,True,1,1,Garage/Riverside,-1.249093333,36.87805167,0.0857142857142857,0.6428571428571429,0.0,18.90714285714285,4279.27,4217.5,6212.200000000001,0.0,0
0200GIT,6,True,3,1,Githurai,-1.20447278,36.91680372,0.0857142857142857,0.6428571428571429,0.0,18.90714285714285,4279.27,4217.5,6212.200000000001,0.0,1
0200GNA,7,True,1,1,Ngemwa,-1.12226057,36.81771755,0.0571428571428571,0.5,0.0,20.92142857142857,3847.35,3883.0,5704.700000000003,0.0,0
0200GNK,6,True,9,1,Guru Nanak,-1.269521713,36.83210492,0.0857142857142857,0.6428571428571429,0.0,18.90714285714285,4279.27,4217.5,6212.200000000001,0.0,1
0200GNK,7,True,1,1,Guru Nanak,-1.269521713,36.83210492,0.0571428571428571,0.5,0.0,20.92142857142857,3847.35,3883.0,5704.700000000003,0.0,0
0200GPS,6,True,1,1,Ngemwa Police Post,-1.121695,36.818793,0.0857142857142857,0.6428571428571429,0.0,18.90714285714285,4279.27,4217.5,6212.200000000001,0.0,0
0200GRG,6,True,2,1,Garage,-1.231264,36.924453,0.0857142857142857,0.6428571428571429,0.0,18.90714285714285,4279.27,4217.5,6212.200000000001,0.0,0
0200GTO,6,True,3,1,Githogoro/Kigwa,-1.21866,36.83586,0.0857142857142857,0.6428571428571429,0.0,18.90714285714285,4279.27,4217.5,6212.200000000001,0.0,1
0200GTO,7,True,1,1,Githogoro/Kigwa,-1.21866,36.83586,0.0571428571428571,0.5,0.0,20.92142857142857,3847.35,3883.0,5704.700000000003,0.0,0
0200HHR,6,True,1,1,Shirika House,-1.273122668,36.81620908,0.0857142857142857,0.6428571428571429,0.0,18.90714285714285,4279.27,4217.5,6212.200000000001,0.0,0
0200HML,6,True,6,1,Garden City/Homeland Inn,-1.230479479,36.87905431,0.0857142857142857,0.6428571428571429,0.0,18.90714285714285,4279.27,4217.5,6212.200000000001,0.0,1
0200HTN,6,True,1,1,Hill stone,-1.252511144,36.880036,0.0857142857142857,0.6428571428571429,0.0,18.90714285714285,4279.27,4217.5,6212.200000000001,0.0,0
0200HUN,6,True,3,1,Hunters,-1.227583,36.917981,0.0857142857142857,0.6428571428571429,0.0,18.90714285714285,4279.27,4217.5,6212.200000000001,0.0,1
0200IMI,6,True,2,1,Kamutiini,-1.23051703,36.92298889,0.0857142857142857,0.6428571428571429,0.0,18.90714285714285,4279.27,4217.5,6212.200000000001,0.0,0
0200IRR,6,True,1,1,Riverside,-1.248269409,36.87665105,0.0857142857142857,0.6428571428571429,0.0,18.90714285714285,4279.27,4217.5,6212.200000000001,0.0,0
0200JIN,6,True,1,1,Ikinu,-1.100941,36.797296,0.0857142857142857,0.6428571428571429,0.0,18.90714285714285,4279.27,4217.5,6212.200000000001,0.0,0
0200KAI,6,True,1,1,Kwa Kairu,-1.143339,36.966445,0.0857142857142857,0.6428571428571429,0.0,18.90714285714285,4279.27,4217.5,6212.200000000001,0.0,0
0200KAW,6,True,1,1,Kwa Maua,-1.121935844,37.00715661,0.0857142857142857,0.6428571428571429,0.0,18.90714285714285,4279.27,4217.5,6212.200000000001,0.0,0
0200KBM,6,True,1,1,Kariobangi Market Stage,-1.255259,36.878742,0.0857142857142857,0.6428571428571429,0.0,18.90714285714285,4279.27,4217.5,6212.200000000001,0.0,0
0200KCI,6,True,1,1,Kariobangi Junction,-1.252570152,36.87895238,0.0857142857142857,0.6428571428571429,0.0,18.90714285714285,4279.27,4217.5,6212.200000000001,0.0,0
0200KEI,6,True,1,1,KIE/Pioneer,-1.272531152,36.82724476,0.0857142857142857,0.6428571428571429,0.0,18.90714285714285,4279.27,4217.5,6212.200000000001,0.0,0
0200KEN,6,True,1,1,Kenafric,-1.246680021,36.88435972,0.0857142857142857,0.6428571428571429,0.0,18.90714285714285,4279.27,4217.5,6212.200000000001,0.0,0
0200KEP,6,True,1,1,Kenya Power,-1.242946386,36.89085066,0.0857142857142857,0.6428571428571429,0.0,18.90714285714285,4279.27,4217.5,6212.200000000001,0.0,0
0200KJN,6,True,4,1,Kirigiti/Ruui,-1.17895,36.83748,0.0857142857142857,0.6428571428571429,0.0,18.90714285714285,4279.27,4217.5,6212.200000000001,0.0,1
0200KS2,6,True,4,1,KIST,-1.1835,36.83854,0.0857142857142857,0.6428571428571429,0.0,18.90714285714285,4279.27,4217.5,6212.200000000001,0.0,1
0200KTJ,6,True,1,1,Junction,-1.152403,36.919994,0.0857142857142857,0.6428571428571429,0.0,18.90714285714285,4279.27,4217.5,6212.200000000001,0.0,0
0200KUF,6,True,2,1,KU Fly Over,-1.180681,36.939082,0.0857142857142857,0.6428571428571429,0.0,18.90714285714285,4279.27,4217.5,6212.200000000001,0.0,0
0200KWH,6,True,2,1,Bypass/Kwaheri Flyover,-1.215137243,36.83501244,0.0857142857142857,0.6428571428571429,0.0,18.90714285714285,4279.27,4217.5,6212.200000000001,0.0,0
0200KWH,7,True,1,1,Bypass/Kwaheri Flyover,-1.215137243,36.83501244,0.0571428571428571,0.5,0.0,20.92142857142857,3847.35,3883.0,5704.700000000003,0.0,0
0200LOK,6,True,1,1,Kobil/K1,-1.267608046,36.81204629,0.0857142857142857,0.6428571428571429,0.0,18.90714285714285,4279.27,4217.5,6212.200000000001,0.0,0
0200LPO,6,True,1,1,Allsops,-1.245715,36.86803667,0.0857142857142857,0.6428571428571429,0.0,18.90714285714285,4279.27,4217.5,6212.200000000001,0.0,0
0200MAT,6,True,3,1,Maternity,-1.223112,36.911889,0.0857142857142857,0.6428571428571429,0.0,18.90714285714285,4279.27,4217.5,6212.200000000001,0.0,1
0200MBA,6,True,1,1,Mamba,-1.269103289,36.84183329,0.0857142857142857,0.6428571428571429,0.0,18.90714285714285,4279.27,4217.5,6212.200000000001,0.0,0
0200MBC,6,True,1,1,Membley Church,-1.159048,36.939119,0.0857142857142857,0.6428571428571429,0.0,18.90714285714285,4279.27,4217.5,6212.200000000001,0.0,0
0200MGN,6,True,1,1,2nd Mugumoini Street,-1.218457,36.874002,0.0857142857142857,0.6428571428571429,0.0,18.90714285714285,4279.27,4217.5,6212.200000000001,0.0,0
0200MNO,6,True,1,1,Makutano,-1.064306,36.783481,0.0857142857142857,0.6428571428571429,0.0,18.90714285714285,4279.27,4217.5,6212.200000000001,0.0,0
0200MOS,6,True,1,1,Mosque Side Ya Juu,-1.24068,36.89471,0.0857142857142857,0.6428571428571429,0.0,18.90714285714285,4279.27,4217.5,6212.200000000001,0.0,0
0200MRR,6,True,2,1,Marurui,-1.211112,36.874403,0.0857142857142857,0.6428571428571429,0.0,18.90714285714285,4279.27,4217.5,6212.200000000001,0.0,0
0200MSH,6,True,5,1,Mushroom,-1.19579,36.83836,0.0857142857142857,0.6428571428571429,0.0,18.90714285714285,4279.27,4217.5,6212.200000000001,0.0,1
0200MTE,6,True,2,1,Muthaiga Golf Club Entrance,-1.25774,36.84292,0.0857142857142857,0.6428571428571429,0.0,18.90714285714285,4279.27,4217.5,6212.200000000001,0.0,0
0200NEH,6,True,1,1,Neighbours,-1.227277,36.870709,0.0857142857142857,0.6428571428571429,0.0,18.90714285714285,4279.27,4217.5,6212.200000000001,0.0,0
0200NES,6,True,3,1,Corner,-1.217567,36.898027,0.0857142857142857,0.6428571428571429,0.0,18.90714285714285,4279.27,4217.5,6212.200000000001,0.0,1
0200NFR,6,True,1,1,Ngorofani,-1.22535789,36.91485,0.0857142857142857,0.6428571428571429,0.0,18.90714285714285,4279.27,4217.5,6212.200000000001,0.0,0
0200NGN,6,True,1,1,Flyover Pangani,-1.266488333,36.83463167,0.0857142857142857,0.6428571428571429,0.0,18.90714285714285,4279.27,4217.5,6212.200000000001,0.0,0
0200NHL,6,True,1,1,Towngate Chapel,-1.15470457,36.81256771,0.0857142857142857,0.6428571428571429,0.0,18.90714285714285,4279.27,4217.5,6212.200000000001,0.0,0
0200NYT,6,True,1,1,Nyati Drive,-1.221369,36.872925,0.0857142857142857,0.6428571428571429,0.0,18.90714285714285,4279.27,4217.5,6212.200000000001,0.0,0
0200OIC,6,True,1,1,Ruaraka Police Post/Baba Dogo Catho,-1.244187087,36.88379377,0.0857142857142857,0.6428571428571429,0.0,18.90714285714285,4279.27,4217.5,6212.200000000001,0.0,0
0200OTO,6,True,3,1,JCL Motors,-1.23544845,36.84368402,0.0857142857142857,0.6428571428571429,0.0,18.90714285714285,4279.27,4217.5,6212.200000000001,0.0,1
0200RAW,6,True,1,1,Kware/Kahawa Sukari,-1.1890769,36.93116426,0.0857142857142857,0.6428571428571429,0.0,18.90714285714285,4279.27,4217.5,6212.200000000001,0.0,0
0200RDS,6,True,3,1,Ridgeway Springs,-1.22895062,36.84054315,0.0857142857142857,0.6428571428571429,0.0,18.90714285714285,4279.27,4217.5,6212.200000000001,0.0,1
0200RDS,7,True,1,1,Ridgeway Springs,-1.22895062,36.84054315,0.0571428571428571,0.5,0.0,20.92142857142857,3847.35,3883.0,5704.700000000003,0.0,0
0200RER,6,True,1,1,Riverside,-1.243933439,36.88097477,0.0857142857142857,0.6428571428571429,0.0,18.90714285714285,4279.27,4217.5,6212.200000000001,0.0,0
0200RGC,6,True,2,1,Regional/ICIPE,-1.220023,36.894127,0.0857142857142857,0.6428571428571429,0.0,18.90714285714285,4279.27,4217.5,6212.200000000001,0.0,0
0200RIE,6,True,1,1,Riverside,-1.246434778,36.88011914,0.0857142857142857,0.6428571428571429,0.0,18.90714285714285,4279.27,4217.5,6212.200000000001,0.0,0
0200RIL,6,True,1,1,Kona Kwa Rail,-1.208219,36.922329,0.0857142857142857,0.6428571428571429,0.0,18.90714285714285,4279.27,4217.5,6212.200000000001,0.0,0
0200RKN,6,True,1,1,Kona,-1.225876,36.874215,0.0857142857142857,0.6428571428571429,0.0,18.90714285714285,4279.27,4217.5,6212.200000000001,0.0,0
0200RND,6,True,3,1,Runda Junction,-1.22171,36.83606,0.0857142857142857,0.6428571428571429,0.0,18.90714285714285,4279.27,4217.5,6212.200000000001,0.0,1
0200RND,7,True,1,1,Runda Junction,-1.22171,36.83606,0.0571428571428571,0.5,0.0,20.92142857142857,3847.35,3883.0,5704.700000000003,0.0,0
0200ROC,6,True,3,1,Rock City,-1.23795,36.84398,0.0857142857142857,0.6428571428571429,0.0,18.90714285714285,4279.27,4217.5,6212.200000000001,0.0,1
0200ROC,7,True,1,1,Rock City,-1.23795,36.84398,0.0571428571428571,0.5,0.0,20.92142857142857,3847.35,3883.0,5704.700000000003,0.0,0
0200RST,6,True,1,1,Roasters,-1.233360171,36.87278867,0.0857142857142857,0.6428571428571429,0.0,18.90714285714285,4279.27,4217.5,6212.200000000001,0.0,0
0200RTI,6,True,3,1,Itara,-1.185209155,36.8388319,0.0857142857142857,0.6428571428571429,0.0,18.90714285714285,4279.27,4217.5,6212.200000000001,0.0,1
0200RUK,6,True,1,1,Ruaraka Academy,-1.214869,36.876151,0.0857142857142857,0.6428571428571429,0.0,18.90714285714285,4279.27,4217.5,6212.200000000001,0.0,0
0200SAK,6,True,1,1,Samaki,-1.243772507,36.8785125,0.0857142857142857,0.6428571428571429,0.0,18.90714285714285,4279.27,4217.5,6212.200000000001,0.0,0
0200SAN,7,True,1,1,SDA Ikinu,-1.102948665,36.79969311,0.0571428571428571,0.5,0.0,20.92142857142857,3847.35,3883.0,5704.700000000003,0.0,0
0200SHK,6,True,3,1,Shark's Palace,-1.24067,36.84427,0.0857142857142857,0.6428571428571429,0.0,18.90714285714285,4279.27,4217.5,6212.200000000001,0.0,1
0200SHK,7,True,1,1,Shark's Palace,-1.24067,36.84427,0.0571428571428571,0.5,0.0,20.92142857142857,3847.35,3883.0,5704.700000000003,0.0,0
0200SHL,6,True,1,1,Shell,-1.235088,36.873169,0.0857142857142857,0.6428571428571429,0.0,18.90714285714285,4279.27,4217.5,6212.200000000001,0.0,0
0200SHP,6,True,2,1,Shell/Kariobangi Catholic Church,-1.256700754,36.87869489,0.0857142857142857,0.6428571428571429,0.0,18.90714285714285,4279.27,4217.5,6212.200000000001,0.0,0
0200SKU,6,True,1,1,Tuskys,-1.0402641,37.07185954,0.0857142857142857,0.6428571428571429,0.0,18.90714285714285,4279.27,4217.5,6212.200000000001,0.0,0
0200SPH,6,True,1,1,Super Highway,-1.164448857,36.95673108,0.0857142857142857,0.6428571428571429,0.0,18.90714285714285,4279.27,4217.5,6212.200000000001,0.0,0
0200SRA,6,True,1,1,Naivas Supermarket,-1.247506142,36.87264919,0.0857142857142857,0.6428571428571429,0.0,18.90714285714285,4279.27,4217.5,6212.200000000001,0.0,0
0200STD,6,True,5,1,Stadium,-1.221633554,36.890046,0.0857142857142857,0.6428571428571429,0.0,18.90714285714285,4279.27,4217.5,6212.200000000001,0.0,1
0200STD,7,True,1,1,Stadium,-1.221633554,36.890046,0.0571428571428571,0.5,0.0,20.92142857142857,3847.35,3883.0,5704.700000000003,0.0,0
0200STM,6,True,1,1,Steam Drive,-1.222789,36.872219,0.0857142857142857,0.6428571428571429,0.0,18.90714285714285,4279.27,4217.5,6212.200000000001,0.0,0
0200STR,6,True,3,1,Kwa Ng'ethe/Five Star,-1.18981,36.83959,0.0857142857142857,0.6428571428571429,0.0,18.90714285714285,4279.27,4217.5,6212.200000000001,0.0,1
0200TDS,6,True,2,1,Seasons,-1.218752,36.902593,0.0857142857142857,0.6428571428571429,0.0,18.90714285714285,4279.27,4217.5,6212.200000000001,0.0,0
0200TFC,6,True,1,1,Perfection,-1.240324706,36.89570278,0.0857142857142857,0.6428571428571429,0.0,18.90714285714285,4279.27,4217.5,6212.200000000001,0.0,0
0200TKL,6,True,2,1,Total Kiambu,-1.175120205,36.82907671,0.0857142857142857,0.6428571428571429,0.0,18.90714285714285,4279.27,4217.5,6212.200000000001,0.0,0
0200TND,6,True,4,1,Thindigwa,-1.19987,36.83525,0.0857142857142857,0.6428571428571429,0.0,18.90714285714285,4279.27,4217.5,6212.200000000001,0.0,1
0200TSB,6,True,1,1,Booster,-1.159456014,36.82005644,0.0857142857142857,0.6428571428571429,0.0,18.90714285714285,4279.27,4217.5,6212.200000000001,0.0,0
0200TSO,6,True,1,1,Posta,-1.276704669,36.82708651,0.0857142857142857,0.6428571428571429,0.0,18.90714285714285,4279.27,4217.5,6212.200000000001,0.0,0
0200TSS,6,True,1,1,TSS Petrol Station/Blue Hut Hotel,-1.277,36.83091,0.0857142857142857,0.6428571428571429,0.0,18.90714285714285,4279.27,4217.5,6212.200000000001,0.0,0
0200UET,6,True,1,1,Equity,-1.218058347,36.89997339,0.0857142857142857,0.6428571428571429,0.0,18.90714285714285,4279.27,4217.5,6212.200000000001,0.0,0
0200URA,7,True,1,1,Githurai,-1.203685731,36.91733211,0.0571428571428571,0.5,0.0,20.92142857142857,3847.35,3883.0,5704.700000000003,0.0,0
0200URD,6,True,1,1,Red Ruby,-1.270240545,36.81308001,0.0857142857142857,0.6428571428571429,0.0,18.90714285714285,4279.27,4217.5,6212.200000000001,0.0,0
0200WAN,6,True,1,1,Dawa Pharmaceuticals,-1.246853203,36.8750605,0.0857142857142857,0.6428571428571429,0.0,18.90714285714285,4279.27,4217.5,6212.200000000001,0.0,0
0200WJY,6,True,3,1,Wanderjoy,-1.23132,36.84252,0.0857142857142857,0.6428571428571429,0.0,18.90714285714285,4279.27,4217.5,6212.200000000001,0.0,1
0200WJY,7,True,1,1,Wanderjoy,-1.23132,36.84252,0.0571428571428571,0.5,0.0,20.92142857142857,3847.35,3883.0,5704.700000000003,0.0,0
0200WKU,6,True,1,1,Kwa Mafuta,-1.228705287,36.91972089,0.0857142857142857,0.6428571428571429,0.0,18.90714285714285,4279.27,4217.5,6212.200000000001,0.0,0
02016EA,6,True,1,1,36Stage,-1.261315674,36.88658595,0.0857142857142857,0.6428571428571429,0.0,18.90714285714285,4279.27,4217.5,6212.200000000001,0.0,0
0201AGH,6,True,1,1,Aga Khan Hospital,-1.268924,36.809952,0.0857142857142857,0.6428571428571429,0.0,18.90714285714285,4279.27,4217.5,6212.200000000001,0.0,0
0201AIK,6,True,1,1,Kariobangi Mwisho,-1.253018333,36.88480333,0.0857142857142857,0.6428571428571429,0.0,18.90714285714285,4279.27,4217.5,6212.200000000001,0.0,0
0201AIP,7,True,1,1,Aipcea,-1.11975,36.819057,0.0571428571428571,0.5,0.0,20.92142857142857,3847.35,3883.0,5704.700000000003,0.0,0
0201AIS,6,True,1,1,AIC Lucky Summer,-1.240432,36.895398,0.0857142857142857,0.6428571428571429,0.0,18.90714285714285,4279.27,4217.5,6212.200000000001,0.0,0
0201ALP,6,True,1,1,Allsops,-1.245253086,36.86786413,0.0857142857142857,0.6428571428571429,0.0,18.90714285714285,4279.27,4217.5,6212.200000000001,0.0,0
0201ALS,6,True,3,1,Allsops,-1.244512796,36.86686635,0.0857142857142857,0.6428571428571429,0.0,18.90714285714285,4279.27,4217.5,6212.200000000001,0.0,1
0201AMC,6,True,1,1,Cinema,-1.250704855,36.90486789,0.0857142857142857,0.6428571428571429,0.0,18.90714285714285,4279.27,4217.5,6212.200000000001,0.0,0
0201ARI,7,True,1,1,Kwa Bridge,-1.121764183,37.00636268,0.0571428571428571,0.5,0.0,20.92142857142857,3847.35,3883.0,5704.700000000003,0.0,0
0201ARS,6,True,1,1,Car Wash,-1.232335567,36.87308371,0.0857142857142857,0.6428571428571429,0.0,18.90714285714285,4279.27,4217.5,6212.200000000001,0.0,0
0201ASP,6,True,1,1,Allsops,-1.24517262,36.86789632,0.0857142857142857,0.6428571428571429,0.0,18.90714285714285,4279.27,4217.5,6212.200000000001,0.0,0
0201ATB,6,True,1,1,Kariobangi catholic church/ Kanisani,-1.257166667,36.879065,0.0857142857142857,0.6428571428571429,0.0,18.90714285714285,4279.27,4217.5,6212.200000000001,0.0,0
0201BHC,6,True,1,1,Beta  Health Care,-1.062916517,36.78296685,0.0857142857142857,0.6428571428571429,0.0,18.90714285714285,4279.27,4217.5,6212.200000000001,0.0,0
0201BHC,7,True,1,1,Beta  Health Care,-1.062916517,36.78296685,0.0571428571428571,0.5,0.0,20.92142857142857,3847.35,3883.0,5704.700000000003,0.0,0
0201BPC,6,True,1,1,The Baptist Chapel,-1.241702,36.893618,0.0857142857142857,0.6428571428571429,0.0,18.90714285714285,4279.27,4217.5,6212.200000000001,0.0,0
0201BRA,6,True,4,1,Barua,-1.19333,36.83991,0.0857142857142857,0.6428571428571429,0.0,18.90714285714285,4279.27,4217.5,6212.200000000001,0.0,1
0201CAL,6,True,1,1,Caltexdn/Equity,-1.268018,36.833628,0.0857142857142857,0.6428571428571429,0.0,18.90714285714285,4279.27,4217.5,6212.200000000001,0.0,0
0201CIA,6,True,1,1,AIC Church,-1.256825656,36.89734161,0.0857142857142857,0.6428571428571429,0.0,18.90714285714285,4279.27,4217.5,6212.200000000001,0.0,0
0201CIT,6,True,1,1,Police Post,-1.2441549,36.88429534,0.0857142857142857,0.6428571428571429,0.0,18.90714285714285,4279.27,4217.5,6212.200000000001,0.0,0
0201CJU,6,True,1,1,Ruiru Road Junction,-1.148968667,36.9568947,0.0857142857142857,0.6428571428571429,0.0,18.90714285714285,4279.27,4217.5,6212.200000000001,0.0,0
0201CNA,6,True,1,1,Cabanas,-1.329994798,36.89034641,0.0857142857142857,0.6428571428571429,0.0,18.90714285714285,4279.27,4217.5,6212.200000000001,0.0,0
0201CON,6,True,2,1,Corner,-1.247130632,36.8743068,0.0857142857142857,0.6428571428571429,0.0,18.90714285714285,4279.27,4217.5,6212.200000000001,0.0,0
0201DAW,6,True,2,1,Naivas/Dawa Pharmacutical,-1.247043,36.873225,0.0857142857142857,0.6428571428571429,0.0,18.90714285714285,4279.27,4217.5,6212.200000000001,0.0,0
0201DBR,6,True,1,1,Ndumberi Factory,-1.140974,36.805712,0.0857142857142857,0.6428571428571429,0.0,18.90714285714285,4279.27,4217.5,6212.200000000001,0.0,0
0201DIA,6,True,1,1,KIE/Desai,-1.271711916,36.82795823,0.0857142857142857,0.6428571428571429,0.0,18.90714285714285,4279.27,4217.5,6212.200000000001,0.0,0
0201DNK,6,True,3,1,Danamac's Flats,-1.21821,36.900913,0.0857142857142857,0.6428571428571429,0.0,18.90714285714285,4279.27,4217.5,6212.200000000001,0.0,1
0201DNO,6,True,1,1,Rounda,-1.26219011,36.87874854,0.0857142857142857,0.6428571428571429,0.0,18.90714285714285,4279.27,4217.5,6212.200000000001,0.0,0
0201DUA,6,True,1,1,Ruiru Road Junction,-1.1490798,36.95702612,0.0857142857142857,0.6428571428571429,0.0,18.90714285714285,4279.27,4217.5,6212.200000000001,0.0,0
0201DWE,7,True,1,1,Weigh Bridge,-1.129483581,36.98738873,0.0571428571428571,0.5,0.0,20.92142857142857,3847.35,3883.0,5704.700000000003,0.0,0
0201ECH,6,True,1,1,Dawa Pharmaceutical,-1.247130632,36.87301397,0.0857142857142857,0.6428571428571429,0.0,18.90714285714285,4279.27,4217.5,6212.200000000001,0.0,0
0201ENL,6,True,1,1,Hill stone,-1.252511667,36.880055,0.0857142857142857,0.6428571428571429,0.0,18.90714285714285,4279.27,4217.5,6212.200000000001,0.0,0
0201EQT,6,True,1,1,Equity,-1.217932105,36.89985752,0.0857142857142857,0.6428571428571429,0.0,18.90714285714285,4279.27,4217.5,6212.200000000001,0.0,0
0201EVR,6,True,3,1,Evergreen,-1.2106,36.83313,0.0857142857142857,0.6428571428571429,0.0,18.90714285714285,4279.27,4217.5,6212.200000000001,0.0,1
0201FM,6,True,1,1,FM,-1.269269586,36.84068531,0.0857142857142857,0.6428571428571429,0.0,18.90714285714285,4279.27,4217.5,6212.200000000001,0.0,0
0201GIT,6,True,1,1,Githurai,-1.203684,36.916758,0.0857142857142857,0.6428571428571429,0.0,18.90714285714285,4279.27,4217.5,6212.200000000001,0.0,0
0201GRD,6,True,2,1,Equity,-1.217937,36.899857,0.0857142857142857,0.6428571428571429,0.0,18.90714285714285,4279.27,4217.5,6212.200000000001,0.0,0
0201GRG,6,True,2,1,Garage,-1.231222,36.924549,0.0857142857142857,0.6428571428571429,0.0,18.90714285714285,4279.27,4217.5,6212.200000000001,0.0,0
0201GTC,6,True,1,1,Gathecha/KSC International Junction,-1.240786,36.887714,0.0857142857142857,0.6428571428571429,0.0,18.90714285714285,4279.27,4217.5,6212.200000000001,0.0,0
0201GTJ,6,True,1,1,Gathanji,-1.089753,36.782261,0.0857142857142857,0.6428571428571429,0.0,18.90714285714285,4279.27,4217.5,6212.200000000001,0.0,0
0201GTJ,7,True,1,1,Gathanji,-1.089753,36.782261,0.0571428571428571,0.5,0.0,20.92142857142857,3847.35,3883.0,5704.700000000003,0.0,0
0201GTO,6,True,4,1,Githogoro,-1.2186,36.83579,0.0857142857142857,0.6428571428571429,0.0,18.90714285714285,4279.27,4217.5,6212.200000000001,0.0,1
0201HML,6,True,8,1,Roasters/Naivas,-1.233043671,36.87387228,0.0857142857142857,0.6428571428571429,0.0,18.90714285714285,4279.27,4217.5,6212.200000000001,0.0,1
0201HSM,6,True,1,1,House Of Faith Ministry,-1.240245,36.895997,0.0857142857142857,0.6428571428571429,0.0,18.90714285714285,4279.27,4217.5,6212.200000000001,0.0,0
0201I/T,6,True,1,1,Kariobangi Market Stage/Soko,-1.255205601,36.87902749,0.0857142857142857,0.6428571428571429,0.0,18.90714285714285,4279.27,4217.5,6212.200000000001,0.0,0
0201IAH,6,True,1,1,Muthaiga,-1.260555518,36.84327364,0.0857142857142857,0.6428571428571429,0.0,18.90714285714285,4279.27,4217.5,6212.200000000001,0.0,0
0201IES,6,True,1,1,Desai,-1.27194795,36.82773024,0.0857142857142857,0.6428571428571429,0.0,18.90714285714285,4279.27,4217.5,6212.200000000001,0.0,0
0201IIR,6,True,1,1,Riverside,-1.249303222,36.87765419,0.0857142857142857,0.6428571428571429,0.0,18.90714285714285,4279.27,4217.5,6212.200000000001,0.0,0
0201IKN,7,True,1,1,Ikinu,-1.099779,36.795763,0.0571428571428571,0.5,0.0,20.92142857142857,3847.35,3883.0,5704.700000000003,0.0,0
0201JAM,6,True,1,1,Jamaica,-1.074943542,36.78059578,0.0857142857142857,0.6428571428571429,0.0,18.90714285714285,4279.27,4217.5,6212.200000000001,0.0,0
0201JAM,7,True,1,1,Jamaica,-1.074943542,36.78059578,0.0571428571428571,0.5,0.0,20.92142857142857,3847.35,3883.0,5704.700000000003,0.0,0
0201JNT,7,True,1,1,Gatitu,-1.043277383,37.07080007,0.0571428571428571,0.5,0.0,20.92142857142857,3847.35,3883.0,5704.700000000003,0.0,0
0201KAI,6,True,1,1,Kwa Kairu,-1.142084,36.966911,0.0857142857142857,0.6428571428571429,0.0,18.90714285714285,4279.27,4217.5,6212.200000000001,0.0,0
0201KAM,6,True,1,1,Kanyama,-1.252580881,36.88219786,0.0857142857142857,0.6428571428571429,0.0,18.90714285714285,4279.27,4217.5,6212.200000000001,0.0,0
0201KBM,6,True,1,1,Kariobangi Market Stage/Soko,-1.255236268,36.87908113,0.0857142857142857,0.6428571428571429,0.0,18.90714285714285,4279.27,4217.5,6212.200000000001,0.0,0
0201KBO,6,True,1,1,Kimbo,-1.132586,36.974481,0.0857142857142857,0.6428571428571429,0.0,18.90714285714285,4279.27,4217.5,6212.200000000001,0.0,0
0201KCB,6,True,2,1,KCB Kiambu,-1.172811985,36.82988405,0.0857142857142857,0.6428571428571429,0.0,18.90714285714285,4279.27,4217.5,6212.200000000001,0.0,0
0201KCL,6,True,1,1,K1 Club,-1.268620491,36.81223512,0.0857142857142857,0.6428571428571429,0.0,18.90714285714285,4279.27,4217.5,6212.200000000001,0.0,0
0201KEE,6,True,1,1,KEMREF,-1.241980791,36.8933022,0.0857142857142857,0.6428571428571429,0.0,18.90714285714285,4279.27,4217.5,6212.200000000001,0.0,0
0201KEP,6,True,1,1,Kenya Power,-1.242862,36.89084,0.0857142857142857,0.6428571428571429,0.0,18.90714285714285,4279.27,4217.5,6212.200000000001,0.0,0
0201KFS,6,True,2,1,Kenya Forestry Service Station/CID,-1.250478029,36.84655666,0.0857142857142857,0.6428571428571429,0.0,18.90714285714285,4279.27,4217.5,6212.200000000001,0.0,0
0201KGM,6,True,1,1,Kiangima,-1.075928,36.786734,0.0857142857142857,0.6428571428571429,0.0,18.90714285714285,4279.27,4217.5,6212.200000000001,0.0,0
0201KGM,7,True,1,1,Kiangima,-1.075928,36.786734,0.0571428571428571,0.5,0.0,20.92142857142857,3847.35,3883.0,5704.700000000003,0.0,0
0201KIH,6,True,2,1,Kihunguro,-1.160286069,36.95838869,0.0857142857142857,0.6428571428571429,0.0,18.90714285714285,4279.27,4217.5,6212.200000000001,0.0,0
0201KJN,6,True,2,1,Kirigiti Junction,-1.17902,36.83742,0.0857142857142857,0.6428571428571429,0.0,18.90714285714285,4279.27,4217.5,6212.200000000001,0.0,0
0201KMT,6,True,1,1,Kamutiini,-1.229538,36.920874,0.0857142857142857,0.6428571428571429,0.0,18.90714285714285,4279.27,4217.5,6212.200000000001,0.0,0
0201KRK,6,True,13,1,Kariokor,-1.279431,36.833293,0.0857142857142857,0.6428571428571429,0.0,18.90714285714285,4279.27,4217.5,6212.200000000001,0.0,1
0201KS2,6,True,3,1,KIST,-1.18345,36.83848,0.0857142857142857,0.6428571428571429,0.0,18.90714285714285,4279.27,4217.5,6212.200000000001,0.0,1
0201KSR,6,True,3,1,Kasarini/Paradise Lost,-1.20585,36.83201,0.0857142857142857,0.6428571428571429,0.0,18.90714285714285,4279.27,4217.5,6212.200000000001,0.0,1
0201KSS,6,True,4,1,Brentwood Hotel,-1.20461,36.83264,0.0857142857142857,0.6428571428571429,0.0,18.90714285714285,4279.27,4217.5,6212.200000000001,0.0,1
0201KSU,6,True,1,1,Kamindi Supermarket,-1.171696186,36.82808161,0.0857142857142857,0.6428571428571429,0.0,18.90714285714285,4279.27,4217.5,6212.200000000001,0.0,0
0201KWH,6,True,3,1,Bypass/Kwaheri Flyover,-1.21506,36.83495,0.0857142857142857,0.6428571428571429,0.0,18.90714285714285,4279.27,4217.5,6212.200000000001,0.0,1
0201MET,6,True,3,1,Bull & Bush,-1.217444,36.89776,0.0857142857142857,0.6428571428571429,0.0,18.90714285714285,4279.27,4217.5,6212.200000000001,0.0,1
0201MGN,6,True,1,1,2nd Mugumoini Street,-1.218296,36.873967,0.0857142857142857,0.6428571428571429,0.0,18.90714285714285,4279.27,4217.5,6212.200000000001,0.0,0
0201MJM,6,True,2,1,Maji Mazuri,-1.23198688,36.92629337,0.0857142857142857,0.6428571428571429,0.0,18.90714285714285,4279.27,4217.5,6212.200000000001,0.0,0
0201MLM,6,True,2,1,Kwa Mlima,-1.233215332,36.92902386,0.0857142857142857,0.6428571428571429,0.0,18.90714285714285,4279.27,4217.5,6212.200000000001,0.0,0
0201MML,6,True,1,1,Mwalimu,-1.269843578,36.83098912,0.0857142857142857,0.6428571428571429,0.0,18.90714285714285,4279.27,4217.5,6212.200000000001,0.0,0
0201MNO,7,True,1,1,Makutano,-1.064754,36.783189,0.0571428571428571,0.5,0.0,20.92142857142857,3847.35,3883.0,5704.700000000003,0.0,0
0201MOS,6,True,1,1,Mosque,-1.24057,36.894865,0.0857142857142857,0.6428571428571429,0.0,18.90714285714285,4279.27,4217.5,6212.200000000001,0.0,0
0201MRT,6,True,3,1,Maternity,-1.223037,36.91183,0.0857142857142857,0.6428571428571429,0.0,18.90714285714285,4279.27,4217.5,6212.200000000001,0.0,1
0201MSH,6,True,3,1,Mushroom,-1.19582,36.83822,0.0857142857142857,0.6428571428571429,0.0,18.90714285714285,4279.27,4217.5,6212.200000000001,0.0,1
0201MSQ,6,True,1,1,Mosque,-1.252661,36.865157,0.0857142857142857,0.6428571428571429,0.0,18.90714285714285,4279.27,4217.5,6212.200000000001,0.0,0
0201MTR,6,True,2,1,TRM,-1.219793558,36.89088821,0.0857142857142857,0.6428571428571429,0.0,18.90714285714285,4279.27,4217.5,6212.200000000001,0.0,0
0201NAS,6,True,1,1,Naivas,-1.218873,36.895474,0.0857142857142857,0.6428571428571429,0.0,18.90714285714285,4279.27,4217.5,6212.200000000001,0.0,0
0201NBN,6,True,1,1,Baba Dogo Junction/Dawa,-1.247575879,36.874457,0.0857142857142857,0.6428571428571429,0.0,18.90714285714285,4279.27,4217.5,6212.200000000001,0.0,0
0201NEH,6,True,1,1,Neighbours,-1.2270087,36.87105596,0.0857142857142857,0.6428571428571429,0.0,18.90714285714285,4279.27,4217.5,6212.200000000001,0.0,0
0201NIO,6,True,1,1,Sokoni,-1.25513,36.87869,0.0857142857142857,0.6428571428571429,0.0,18.90714285714285,4279.27,4217.5,6212.200000000001,0.0,0
0201NTR,6,True,2,1,Naivas Ciata Mall/Ridgeways Mall,-1.22525,36.83883,0.0857142857142857,0.6428571428571429,0.0,18.90714285714285,4279.27,4217.5,6212.200000000001,0.0,0
0201NVS,6,True,1,1,Naivas,-1.247559786,36.87267065,0.0857142857142857,0.6428571428571429,0.0,18.90714285714285,4279.27,4217.5,6212.200000000001,0.0,0
0201NYT,6,True,1,1,Nyati Drive,-1.220956,36.873096,0.0857142857142857,0.6428571428571429,0.0,18.90714285714285,4279.27,4217.5,6212.200000000001,0.0,0
0201OER,6,True,1,1,Pioneer,-1.272505885,36.82773292,0.0857142857142857,0.6428571428571429,0.0,18.90714285714285,4279.27,4217.5,6212.200000000001,0.0,0
0201PME,6,True,1,1,Marie Stopes,-1.269189119,36.84839398,0.0857142857142857,0.6428571428571429,0.0,18.90714285714285,4279.27,4217.5,6212.200000000001,0.0,0
0201PNG,6,True,8,1,Pangani/Muthaiga Footbridge,-1.264039278,36.83783412,0.0857142857142857,0.6428571428571429,0.0,18.90714285714285,4279.27,4217.5,6212.200000000001,0.0,1
0201POS,7,True,1,1,Police Post,-1.121249,36.819359,0.0571428571428571,0.5,0.0,20.92142857142857,3847.35,3883.0,5704.700000000003,0.0,0
0201PPS,6,True,1,1,Police Post,-1.219857,36.894257,0.0857142857142857,0.6428571428571429,0.0,18.90714285714285,4279.27,4217.5,6212.200000000001,0.0,0
0201RAK,6,True,1,1,Mpaka Road,-1.265068263,36.80462676,0.0857142857142857,0.6428571428571429,0.0,18.90714285714285,4279.27,4217.5,6212.200000000001,0.0,0
0201RDS,6,True,4,1,Ridgeway Springs/Total,-1.229122281,36.84055924,0.0857142857142857,0.6428571428571429,0.0,18.90714285714285,4279.27,4217.5,6212.200000000001,0.0,1
0201RET,6,True,1,1,St Margret,-1.207715,36.924788,0.0857142857142857,0.6428571428571429,0.0,18.90714285714285,4279.27,4217.5,6212.200000000001,0.0,0
0201REV,6,True,1,1,Drive In,-1.250063333,36.86227333,0.0857142857142857,0.6428571428571429,0.0,18.90714285714285,4279.27,4217.5,6212.200000000001,0.0,0
0201RGC,6,True,3,1,Regional Centre/ICIPE,-1.219975948,36.89407468,0.0857142857142857,0.6428571428571429,0.0,18.90714285714285,4279.27,4217.5,6212.200000000001,0.0,1
0201RIL,6,True,1,1,Kona Kwa Rail,-1.208181,36.922337,0.0857142857142857,0.6428571428571429,0.0,18.90714285714285,4279.27,4217.5,6212.200000000001,0.0,0
0201RKN,6,True,1,1,Kona,-1.225183,36.873912,0.0857142857142857,0.6428571428571429,0.0,18.90714285714285,4279.27,4217.5,6212.200000000001,0.0,0
0201RND,6,True,4,1,Runda Junction,-1.22181,36.8361,0.0857142857142857,0.6428571428571429,0.0,18.90714285714285,4279.27,4217.5,6212.200000000001,0.0,1
